[
  {
    "pageid": 12156975,
    "ns": 0,
    "title": "Col des Arrent\u00e8s",
    "lat": 48.14778,
    "lon": 6.86417,
    "dist": 1931.3,
    "primary": "",
    "url": "https://fr.wikipedia.org/wiki/Col%20des%20Arrent%C3%A8s"
  },
  {
    "pageid": 194425,
    "ns": 0,
    "title": "Arrent\u00e8s-de-Corcieux",
    "lat": 48.1455555556,
    "lon": 6.86527777778,
    "dist": 2122.1,
    "primary": "",
    "url": "https://fr.wikipedia.org/wiki/Arrent%C3%A8s-de-Corcieux"
  },
  {
    "pageid": 10450626,
    "ns": 0,
    "title": "Champ de roches",
    "lat": 48.130291,
    "lon": 6.85806,
    "dist": 3074.2,
    "primary": "",
    "url": "https://fr.wikipedia.org/wiki/Champ%20de%20roches"
  },
  {
    "pageid": 167369,
    "ns": 0,
    "title": "Canton de Corcieux",
    "lat": 48.1724,
    "lon": 6.88019,
    "dist": 3478.7,
    "primary": "",
    "url": "https://fr.wikipedia.org/wiki/Canton%20de%20Corcieux"
  },
  {
    "pageid": 86789,
    "ns": 0,
    "title": "Corcieux",
    "lat": 48.1730555556,
    "lon": 6.88027777778,
    "dist": 3524.2,
    "primary": "",
    "url": "https://fr.wikipedia.org/wiki/Corcieux"
  },
  {
    "pageid": 17121921,
    "ns": 0,
    "title": "\u00c9glise Notre-Dame-de-l'Assomption de Corcieux",
    "lat": 48.172702,
    "lon": 6.881261,
    "dist": 3563.7,
    "primary": "",
    "url": "https://fr.wikipedia.org/wiki/%C3%89glise%20Notre-Dame-de-l%27Assomption%20de%20Corcieux"
  },
  {
    "pageid": 198693,
    "ns": 0,
    "title": "La Houssi\u00e8re",
    "lat": 48.1961111111,
    "lon": 6.85416666667,
    "dist": 4631.7,
    "primary": "",
    "url": "https://fr.wikipedia.org/wiki/La%20Houssi%C3%A8re"
  },
  {
    "pageid": 12141777,
    "ns": 0,
    "title": "Terrain d'aviation de Corcieux",
    "lat": 48.187965,
    "lon": 6.8799424,
    "dist": 4639.2,
    "primary": "",
    "url": "https://fr.wikipedia.org/wiki/Terrain%20d%27aviation%20de%20Corcieux"
  },
  {
    "pageid": 12287641,
    "ns": 0,
    "title": "Gare de La Houssi\u00e8re",
    "lat": 48.198904,
    "lon": 6.853072,
    "dist": 4919.8,
    "primary": "",
    "url": "https://fr.wikipedia.org/wiki/Gare%20de%20La%20Houssi%C3%A8re"
  },
  {
    "pageid": 15896465,
    "ns": 0,
    "title": "T\u00eate de Nayemont",
    "lat": 48.125057,
    "lon": 6.889812,
    "dist": 4963,
    "primary": "",
    "url": "https://fr.wikipedia.org/wiki/T%C3%AAte%20de%20Nayemont"
  },
  {
    "pageid": 16113252,
    "ns": 0,
    "title": "For\u00eat domaniale de Vologne",
    "lat": 48.110322,
    "lon": 6.864616,
    "dist": 5317.5,
    "primary": "",
    "url": "https://fr.wikipedia.org/wiki/For%C3%AAt%20domaniale%20de%20Vologne"
  },
  {
    "pageid": 1697909,
    "ns": 0,
    "title": "Gare de Corcieux - Van\u00e9mont",
    "lat": 48.198363,
    "lon": 6.877618,
    "dist": 5500.3,
    "primary": "",
    "url": "https://fr.wikipedia.org/wiki/Gare%20de%20Corcieux%20-%20Van%C3%A9mont"
  },
  {
    "pageid": 958073,
    "ns": 0,
    "title": "Col du Plafond",
    "lat": 48.16556,
    "lon": 6.91722,
    "dist": 5779.7,
    "primary": "",
    "url": "https://fr.wikipedia.org/wiki/Col%20du%20Plafond"
  },
  {
    "pageid": 16443147,
    "ns": 0,
    "title": "Gare de Port-Sec-du-Kertoff",
    "lat": 48.104451,
    "lon": 6.865565,
    "dist": 5958.6,
    "primary": "",
    "url": "https://fr.wikipedia.org/wiki/Gare%20de%20Port-Sec-du-Kertoff"
  },
  {
    "pageid": 16979882,
    "ns": 0,
    "title": "\u00c9glise Saint-Jean-Baptiste de Gerb\u00e9pal",
    "lat": 48.149812,
    "lon": 6.922009,
    "dist": 6057.1,
    "primary": "",
    "url": "https://fr.wikipedia.org/wiki/%C3%89glise%20Saint-Jean-Baptiste%20de%20Gerb%C3%A9pal"
  },
  {
    "pageid": 167170,
    "ns": 0,
    "title": "Gerb\u00e9pal",
    "lat": 48.1508333333,
    "lon": 6.92277777778,
    "dist": 6103.2,
    "primary": "",
    "url": "https://fr.wikipedia.org/wiki/Gerb%C3%A9pal"
  },
  {
    "pageid": 15972163,
    "ns": 0,
    "title": "D\u00e9fil\u00e9 du Kertoff",
    "lat": 48.101349,
    "lon": 6.87397,
    "dist": 6497.4,
    "primary": "",
    "url": "https://fr.wikipedia.org/wiki/D%C3%A9fil%C3%A9%20du%20Kertoff"
  },
  {
    "pageid": 202799,
    "ns": 0,
    "title": "Mortagne (rivi\u00e8re)",
    "lat": 48.2139,
    "lon": 6.87333,
    "dist": 6935.4,
    "primary": "",
    "url": "https://fr.wikipedia.org/wiki/Mortagne%20%28rivi%C3%A8re%29"
  },
  {
    "pageid": 8457226,
    "ns": 0,
    "title": "Chapelle Sainte-Anne de Martimpr\u00e9",
    "lat": 48.104911,
    "lon": 6.904754,
    "dist": 7353.9,
    "primary": "",
    "url": "https://fr.wikipedia.org/wiki/Chapelle%20Sainte-Anne%20de%20Martimpr%C3%A9"
  },
  {
    "pageid": 6465738,
    "ns": 0,
    "title": "Gare de Kichompr\u00e9",
    "lat": 48.09125,
    "lon": 6.885154,
    "dist": 7858.8,
    "primary": "",
    "url": "https://fr.wikipedia.org/wiki/Gare%20de%20Kichompr%C3%A9"
  },
  {
    "pageid": 965582,
    "ns": 0,
    "title": "Col de Martimpr\u00e9",
    "lat": 48.09889,
    "lon": 6.90528,
    "dist": 7900.9,
    "primary": "",
    "url": "https://fr.wikipedia.org/wiki/Col%20de%20Martimpr%C3%A9"
  },
  {
    "pageid": 15731082,
    "ns": 0,
    "title": "\u00c9glise Saint-Antoine d'Anould",
    "lat": 48.183815,
    "lon": 6.947428,
    "dist": 8514.8,
    "primary": "",
    "url": "https://fr.wikipedia.org/wiki/%C3%89glise%20Saint-Antoine%20d%27Anould"
  },
  {
    "pageid": 99839,
    "ns": 0,
    "title": "Anould",
    "lat": 48.1863888889,
    "lon": 6.94638888889,
    "dist": 8554.3,
    "primary": "",
    "url": "https://fr.wikipedia.org/wiki/Anould"
  },
  {
    "pageid": 14857043,
    "ns": 0,
    "title": "Pont des F\u00e9es (Vologne)",
    "lat": 48.086309,
    "lon": 6.902984,
    "dist": 8965.1,
    "primary": "",
    "url": "https://fr.wikipedia.org/wiki/Pont%20des%20F%C3%A9es%20%28Vologne%29"
  },
  {
    "pageid": 1822611,
    "ns": 0,
    "title": "Gare d'Anould",
    "lat": 48.189949,
    "lon": 6.951164,
    "dist": 9040.2,
    "primary": "",
    "url": "https://fr.wikipedia.org/wiki/Gare%20d%27Anould"
  },
  {
    "pageid": 16111961,
    "ns": 0,
    "title": "For\u00eat de G\u00e9rardmer",
    "lat": 48.092881,
    "lon": 6.926877,
    "dist": 9444,
    "primary": "",
    "url": "https://fr.wikipedia.org/wiki/For%C3%AAt%20de%20G%C3%A9rardmer"
  },
  {
    "pageid": 8272985,
    "ns": 0,
    "title": "Saut des Cuves",
    "lat": 48.08444,
    "lon": 6.91083,
    "dist": 9451.3,
    "primary": "",
    "url": "https://fr.wikipedia.org/wiki/Saut%20des%20Cuves"
  },
  {
    "pageid": 1833801,
    "ns": 0,
    "title": "Gare de G\u00e9rardmer",
    "lat": 48.072175,
    "lon": 6.872805,
    "dist": 9557,
    "primary": "",
    "url": "https://fr.wikipedia.org/wiki/Gare%20de%20G%C3%A9rardmer"
  },
  {
    "pageid": 14339102,
    "ns": 0,
    "title": "\u00c9glise Saint-Barth\u00e9l\u00e9my de G\u00e9rardmer",
    "lat": 48.073055555555,
    "lon": 6.879444444444,
    "dist": 9597.8,
    "primary": "",
    "url": "https://fr.wikipedia.org/wiki/%C3%89glise%20Saint-Barth%C3%A9l%C3%A9my%20de%20G%C3%A9rardmer"
  },
  {
    "pageid": 8713164,
    "ns": 0,
    "title": "G\u00e9rardmer",
    "lat": 48.073055555555,
    "lon": 6.879444444444,
    "dist": 9597.8,
    "primary": "",
    "url": "https://fr.wikipedia.org/wiki/G%C3%A9rardmer"
  },
  {
    "pageid": 115536,
    "ns": 0,
    "title": "Lac de G\u00e9rardmer",
    "lat": 48.069444,
    "lon": 6.852778,
    "dist": 9601.8,
    "primary": "",
    "url": "https://fr.wikipedia.org/wiki/Lac%20de%20G%C3%A9rardmer"
  },
  {
    "pageid": 12029764,
    "ns": 0,
    "title": "Unit\u00e9 urbaine de G\u00e9rardmer",
    "lat": 48.072222222,
    "lon": 6.878611111,
    "dist": 9668.2,
    "primary": "",
    "url": "https://fr.wikipedia.org/wiki/Unit%C3%A9%20urbaine%20de%20G%C3%A9rardmer"
  },
  {
    "pageid": 167355,
    "ns": 0,
    "title": "Canton de G\u00e9rardmer",
    "lat": 48.072221944444,
    "lon": 6.8786111111111,
    "dist": 9668.2,
    "primary": "",
    "url": "https://fr.wikipedia.org/wiki/Canton%20de%20G%C3%A9rardmer"
  },
  {
    "pageid": 14857008,
    "ns": 0,
    "title": "Immeuble Chevroton",
    "lat": 48.0711,
    "lon": 6.877994,
    "dist": 9774.6,
    "primary": "",
    "url": "https://fr.wikipedia.org/wiki/Immeuble%20Chevroton"
  },
  {
    "pageid": 12119252,
    "ns": 0,
    "title": "Scierie du Lan\u00e7oir",
    "lat": 48.11528,
    "lon": 6.9583,
    "dist": 9796.1,
    "primary": "",
    "url": "https://fr.wikipedia.org/wiki/Scierie%20du%20Lan%C3%A7oir"
  },
  {
    "pageid": 962776,
    "ns": 0,
    "title": "Col du Haut Jacques",
    "lat": 48.274588,
    "lon": 6.862584,
    "dist": 3613.1,
    "primary": "",
    "url": "https://fr.wikipedia.org/wiki/Col%20du%20Haut%20Jacques"
  },
  {
    "pageid": 4258660,
    "ns": 0,
    "title": "Taintrux",
    "lat": 48.2502777778,
    "lon": 6.90277777778,
    "dist": 4620.2,
    "primary": "",
    "url": "https://fr.wikipedia.org/wiki/Taintrux"
  },
  {
    "pageid": 8131016,
    "ns": 0,
    "title": "Site de hauteur du Chastel",
    "lat": 48.250278,
    "lon": 6.902778,
    "dist": 4620.2,
    "primary": "",
    "url": "https://fr.wikipedia.org/wiki/Site%20de%20hauteur%20du%20Chastel"
  },
  {
    "pageid": 1545899,
    "ns": 0,
    "title": "Pierre de Laitre",
    "lat": 48.256509,
    "lon": 6.907098,
    "dist": 5059.3,
    "primary": "",
    "url": "https://fr.wikipedia.org/wiki/Pierre%20de%20Laitre"
  },
  {
    "pageid": 2800898,
    "ns": 0,
    "title": "La Madeleine (montagne)",
    "lat": 48.2925,
    "lon": 6.87611,
    "dist": 5842.1,
    "primary": "",
    "url": "https://fr.wikipedia.org/wiki/La%20Madeleine%20%28montagne%29"
  },
  {
    "pageid": 9661416,
    "ns": 0,
    "title": "Col d'Anozel",
    "lat": 48.245,
    "lon": 6.92639,
    "dist": 6338.7,
    "primary": "",
    "url": "https://fr.wikipedia.org/wiki/Col%20d%27Anozel"
  },
  {
    "pageid": 10187977,
    "ns": 0,
    "title": "La Bolle",
    "lat": 48.28315,
    "lon": 6.9053352,
    "dist": 6351.3,
    "primary": "",
    "url": "https://fr.wikipedia.org/wiki/La%20Bolle"
  },
  {
    "pageid": 2856228,
    "ns": 0,
    "title": "Massif du Kemberg",
    "lat": 48.25417,
    "lon": 6.92889,
    "dist": 6593.6,
    "primary": "",
    "url": "https://fr.wikipedia.org/wiki/Massif%20du%20Kemberg"
  },
  {
    "pageid": 4589247,
    "ns": 0,
    "title": "Roche Saint-Martin",
    "lat": 48.27833,
    "lon": 6.93222,
    "dist": 7689,
    "primary": "",
    "url": "https://fr.wikipedia.org/wiki/Roche%20Saint-Martin"
  },
  {
    "pageid": 12191064,
    "ns": 0,
    "title": "N\u00e9cropole nationale des Tiges",
    "lat": 48.2867,
    "lon": 6.92465,
    "dist": 7713.7,
    "primary": "",
    "url": "https://fr.wikipedia.org/wiki/N%C3%A9cropole%20nationale%20des%20Tiges"
  },
  {
    "pageid": 1698145,
    "ns": 0,
    "title": "Gare de Saint-L\u00e9onard",
    "lat": 48.216939,
    "lon": 6.941583,
    "dist": 8113.5,
    "primary": "",
    "url": "https://fr.wikipedia.org/wiki/Gare%20de%20Saint-L%C3%A9onard"
  },
  {
    "pageid": 12287695,
    "ns": 0,
    "title": "Gare de Saulcy",
    "lat": 48.2382,
    "lon": 6.9516,
    "dist": 8245.9,
    "primary": "",
    "url": "https://fr.wikipedia.org/wiki/Gare%20de%20Saulcy"
  },
  {
    "pageid": 195112,
    "ns": 0,
    "title": "Saint-L\u00e9onard (Vosges)",
    "lat": 48.2172222222,
    "lon": 6.94444444444,
    "dist": 8296.9,
    "primary": "",
    "url": "https://fr.wikipedia.org/wiki/Saint-L%C3%A9onard%20%28Vosges%29"
  },
  {
    "pageid": 1912733,
    "ns": 0,
    "title": "G\u00e9oparc (Saint-Di\u00e9-des-Vosges)",
    "lat": 48.300555,
    "lon": 6.918649,
    "dist": 8406,
    "primary": "",
    "url": "https://fr.wikipedia.org/wiki/G%C3%A9oparc%20%28Saint-Di%C3%A9-des-Vosges%29"
  },
  {
    "pageid": 15972306,
    "ns": 0,
    "title": "\u00c9glise Saint-Pierre-et-Saint-L\u00e9onard de Saint-L\u00e9onard",
    "lat": 48.215325,
    "lon": 6.947054,
    "dist": 8556.8,
    "primary": "",
    "url": "https://fr.wikipedia.org/wiki/%C3%89glise%20Saint-Pierre-et-Saint-L%C3%A9onard%20de%20Saint-L%C3%A9onard"
  },
  {
    "pageid": 7455705,
    "ns": 0,
    "title": "Chapelle du Petit-Saint-Di\u00e9",
    "lat": 48.281559,
    "lon": 6.943397,
    "dist": 8587.8,
    "primary": "",
    "url": "https://fr.wikipedia.org/wiki/Chapelle%20du%20Petit-Saint-Di%C3%A9"
  },
  {
    "pageid": 197693,
    "ns": 0,
    "title": "Saint-Michel-sur-Meurthe",
    "lat": 48.3183333333,
    "lon": 6.8875,
    "dist": 8804,
    "primary": "",
    "url": "https://fr.wikipedia.org/wiki/Saint-Michel-sur-Meurthe"
  },
  {
    "pageid": 169770,
    "ns": 0,
    "title": "Saulcy-sur-Meurthe",
    "lat": 48.2372222222,
    "lon": 6.96055555556,
    "dist": 8916.8,
    "primary": "",
    "url": "https://fr.wikipedia.org/wiki/Saulcy-sur-Meurthe"
  },
  {
    "pageid": 3656297,
    "ns": 0,
    "title": "Bataille de Nompatelize",
    "lat": 48.325406,
    "lon": 6.853445,
    "dist": 8932.9,
    "primary": "",
    "url": "https://fr.wikipedia.org/wiki/Bataille%20de%20Nompatelize"
  },
  {
    "pageid": 1697762,
    "ns": 0,
    "title": "Gare de Saint-Di\u00e9-des-Vosges",
    "lat": 48.282002,
    "lon": 6.948441,
    "dist": 8941.9,
    "primary": "",
    "url": "https://fr.wikipedia.org/wiki/Gare%20de%20Saint-Di%C3%A9-des-Vosges"
  },
  {
    "pageid": 195367,
    "ns": 0,
    "title": "Nompatelize",
    "lat": 48.3258333333,
    "lon": 6.85361111111,
    "dist": 8981.4,
    "primary": "",
    "url": "https://fr.wikipedia.org/wiki/Nompatelize"
  },
  {
    "pageid": 1206704,
    "ns": 0,
    "title": "\u00c9glise Saint-Martin de Saint-Di\u00e9-des-Vosges",
    "lat": 48.283787,
    "lon": 6.948546,
    "dist": 9040.4,
    "primary": "",
    "url": "https://fr.wikipedia.org/wiki/%C3%89glise%20Saint-Martin%20de%20Saint-Di%C3%A9-des-Vosges"
  },
  {
    "pageid": 3868786,
    "ns": 0,
    "title": "Robache",
    "lat": 48.2917,
    "lon": 6.94139,
    "dist": 9045.2,
    "primary": "",
    "url": "https://fr.wikipedia.org/wiki/Robache"
  },
  {
    "pageid": 169648,
    "ns": 0,
    "title": "Canton de Saint-Di\u00e9-des-Vosges-Est",
    "lat": 48.2837,
    "lon": 6.94894,
    "dist": 9061.6,
    "primary": "",
    "url": "https://fr.wikipedia.org/wiki/Canton%20de%20Saint-Di%C3%A9-des-Vosges-Est"
  },
  {
    "pageid": 169634,
    "ns": 0,
    "title": "Canton de Saint-Di\u00e9-des-Vosges-Ouest",
    "lat": 48.2837,
    "lon": 6.94894,
    "dist": 9061.6,
    "primary": "",
    "url": "https://fr.wikipedia.org/wiki/Canton%20de%20Saint-Di%C3%A9-des-Vosges-Ouest"
  },
  {
    "pageid": 9599037,
    "ns": 0,
    "title": "Unit\u00e9 urbaine de Saint-Di\u00e9-des-Vosges",
    "lat": 48.284166666,
    "lon": 6.949166666,
    "dist": 9100.8,
    "primary": "",
    "url": "https://fr.wikipedia.org/wiki/Unit%C3%A9%20urbaine%20de%20Saint-Di%C3%A9-des-Vosges"
  },
  {
    "pageid": 8728252,
    "ns": 0,
    "title": "Canton de Saint-Di\u00e9-des-Vosges-1",
    "lat": 48.284166944444,
    "lon": 6.9491669444444,
    "dist": 9100.9,
    "primary": "",
    "url": "https://fr.wikipedia.org/wiki/Canton%20de%20Saint-Di%C3%A9-des-Vosges-1"
  },
  {
    "pageid": 8728258,
    "ns": 0,
    "title": "Canton de Saint-Di\u00e9-des-Vosges-2",
    "lat": 48.284166944444,
    "lon": 6.9491669444444,
    "dist": 9100.9,
    "primary": "",
    "url": "https://fr.wikipedia.org/wiki/Canton%20de%20Saint-Di%C3%A9-des-Vosges-2"
  },
  {
    "pageid": 108565,
    "ns": 0,
    "title": "Arrondissement de Saint-Di\u00e9-des-Vosges",
    "lat": 48.2833,
    "lon": 6.95,
    "dist": 9110.5,
    "primary": "",
    "url": "https://fr.wikipedia.org/wiki/Arrondissement%20de%20Saint-Di%C3%A9-des-Vosges"
  },
  {
    "pageid": 378146,
    "ns": 0,
    "title": "Tour de la libert\u00e9 (Saint-Di\u00e9-des-Vosges)",
    "lat": 48.286561,
    "lon": 6.947321,
    "dist": 9110.9,
    "primary": "",
    "url": "https://fr.wikipedia.org/wiki/Tour%20de%20la%20libert%C3%A9%20%28Saint-Di%C3%A9-des-Vosges%29"
  },
  {
    "pageid": 15956640,
    "ns": 0,
    "title": "La Boussole (m\u00e9diath\u00e8que)",
    "lat": 48.28702545166,
    "lon": 6.9470853805542,
    "dist": 9121.8,
    "primary": "",
    "url": "https://fr.wikipedia.org/wiki/La%20Boussole%20%28m%C3%A9diath%C3%A8que%29"
  },
  {
    "pageid": 16487443,
    "ns": 0,
    "title": "Temple protestant de Saint-Di\u00e9-des-Vosges",
    "lat": 48.28824,
    "lon": 6.94682,
    "dist": 9174,
    "primary": "",
    "url": "https://fr.wikipedia.org/wiki/Temple%20protestant%20de%20Saint-Di%C3%A9-des-Vosges"
  },
  {
    "pageid": 68786,
    "ns": 0,
    "title": "Festival international de g\u00e9ographie",
    "lat": 48.285,
    "lon": 6.95,
    "dist": 9199.1,
    "primary": "",
    "url": "https://fr.wikipedia.org/wiki/Festival%20international%20de%20g%C3%A9ographie"
  },
  {
    "pageid": 36532,
    "ns": 0,
    "title": "Saint-Di\u00e9-des-Vosges",
    "lat": 48.285,
    "lon": 6.95,
    "dist": 9199.1,
    "primary": "",
    "url": "https://fr.wikipedia.org/wiki/Saint-Di%C3%A9-des-Vosges"
  },
  {
    "pageid": 12771885,
    "ns": 0,
    "title": "Temple ma\u00e7onnique de Saint-Di\u00e9-des-Vosges",
    "lat": 48.276374,
    "lon": 6.958106,
    "dist": 9337.7,
    "primary": "",
    "url": "https://fr.wikipedia.org/wiki/Temple%20ma%C3%A7onnique%20de%20Saint-Di%C3%A9-des-Vosges"
  },
  {
    "pageid": 13598196,
    "ns": 0,
    "title": "Synagogue de Saint-Di\u00e9-des-Vosges",
    "lat": 48.28759,
    "lon": 6.95087,
    "dist": 9395.6,
    "primary": "",
    "url": "https://fr.wikipedia.org/wiki/Synagogue%20de%20Saint-Di%C3%A9-des-Vosges"
  },
  {
    "pageid": 14230034,
    "ns": 0,
    "title": "Cimeti\u00e8re rive droite de Saint-Di\u00e9-des-Vosges",
    "lat": 48.290277777778,
    "lon": 6.9486111111111,
    "dist": 9405.4,
    "primary": "",
    "url": "https://fr.wikipedia.org/wiki/Cimeti%C3%A8re%20rive%20droite%20de%20Saint-Di%C3%A9-des-Vosges"
  },
  {
    "pageid": 12760615,
    "ns": 0,
    "title": "Ch\u00e2teau de Saint-Di\u00e9-des-Vosges",
    "lat": 48.28833,
    "lon": 6.95111,
    "dist": 9452.1,
    "primary": "",
    "url": "https://fr.wikipedia.org/wiki/Ch%C3%A2teau%20de%20Saint-Di%C3%A9-des-Vosges"
  },
  {
    "pageid": 686920,
    "ns": 0,
    "title": "Cath\u00e9drale Saint-Di\u00e9 de Saint-Di\u00e9-des-Vosges",
    "lat": 48.289046,
    "lon": 6.950514,
    "dist": 9454.5,
    "primary": "",
    "url": "https://fr.wikipedia.org/wiki/Cath%C3%A9drale%20Saint-Di%C3%A9%20de%20Saint-Di%C3%A9-des-Vosges"
  },
  {
    "pageid": 784246,
    "ns": 0,
    "title": "Mus\u00e9e Pierre-No\u00ebl de Saint-Di\u00e9-des-Vosges",
    "lat": 48.28853,
    "lon": 6.9512,
    "dist": 9469,
    "primary": "",
    "url": "https://fr.wikipedia.org/wiki/Mus%C3%A9e%20Pierre-No%C3%ABl%20de%20Saint-Di%C3%A9-des-Vosges"
  },
  {
    "pageid": 12771883,
    "ns": 0,
    "title": "Palais de la Galazi\u00e8re",
    "lat": 48.288733,
    "lon": 6.951025,
    "dist": 9469.3,
    "primary": "",
    "url": "https://fr.wikipedia.org/wiki/Palais%20de%20la%20Galazi%C3%A8re"
  },
  {
    "pageid": 12771894,
    "ns": 0,
    "title": "Fontaine (Saint-Di\u00e9-des-Vosges, rue du Nord)",
    "lat": 48.2896,
    "lon": 6.9508,
    "dist": 9504.3,
    "primary": "",
    "url": "https://fr.wikipedia.org/wiki/Fontaine%20%28Saint-Di%C3%A9-des-Vosges%2C%20rue%20du%20Nord%29"
  },
  {
    "pageid": 12771891,
    "ns": 0,
    "title": "Cure de Saint-Di\u00e9-des-Vosges",
    "lat": 48.2901,
    "lon": 6.9508,
    "dist": 9533,
    "primary": "",
    "url": "https://fr.wikipedia.org/wiki/Cure%20de%20Saint-Di%C3%A9-des-Vosges"
  },
  {
    "pageid": 10149709,
    "ns": 0,
    "title": "Usine Claude-et-Duval",
    "lat": 48.290546,
    "lon": 6.950435,
    "dist": 9535.9,
    "primary": "",
    "url": "https://fr.wikipedia.org/wiki/Usine%20Claude-et-Duval"
  },
  {
    "pageid": 12771886,
    "ns": 0,
    "title": "\u00c9glise Notre-Dame de Saint-Di\u00e9-des-Vosges",
    "lat": 48.289625,
    "lon": 6.951395,
    "dist": 9543.4,
    "primary": "",
    "url": "https://fr.wikipedia.org/wiki/%C3%89glise%20Notre-Dame%20de%20Saint-Di%C3%A9-des-Vosges"
  },
  {
    "pageid": 12771897,
    "ns": 0,
    "title": "Fontaine (Saint-Di\u00e9-des-Vosges, place du Ch\u00e2pitre)",
    "lat": 48.2899,
    "lon": 6.9512,
    "dist": 9546.8,
    "primary": "",
    "url": "https://fr.wikipedia.org/wiki/Fontaine%20%28Saint-Di%C3%A9-des-Vosges%2C%20place%20du%20Ch%C3%A2pitre%29"
  },
  {
    "pageid": 906383,
    "ns": 0,
    "title": "Ferme-mus\u00e9e de la Soyotte",
    "lat": 48.271163841236,
    "lon": 6.964593,
    "dist": 9598.6,
    "primary": "",
    "url": "https://fr.wikipedia.org/wiki/Ferme-mus%C3%A9e%20de%20la%20Soyotte"
  },
  {
    "pageid": 14350793,
    "ns": 0,
    "title": "Chapelle Saint-Roch (Saint-Di\u00e9-des-Vosges)",
    "lat": 48.30039823406,
    "lon": 6.9420027116986,
    "dist": 9661.9,
    "primary": "",
    "url": "https://fr.wikipedia.org/wiki/Chapelle%20Saint-Roch%20%28Saint-Di%C3%A9-des-Vosges%29"
  },
  {
    "pageid": 1698155,
    "ns": 0,
    "title": "Gare de Saint-Michel-sur-Meurthe",
    "lat": 48.327063,
    "lon": 6.888276,
    "dist": 9724.7,
    "primary": "",
    "url": "https://fr.wikipedia.org/wiki/Gare%20de%20Saint-Michel-sur-Meurthe"
  },
  {
    "pageid": 12760666,
    "ns": 0,
    "title": "Usine Gantois",
    "lat": 48.2834,
    "lon": 6.9604,
    "dist": 9804.7,
    "primary": "",
    "url": "https://fr.wikipedia.org/wiki/Usine%20Gantois"
  },
  {
    "pageid": 3868738,
    "ns": 0,
    "title": "Ortimont",
    "lat": 48.30361,
    "lon": 6.94139,
    "dist": 9856.9,
    "primary": "",
    "url": "https://fr.wikipedia.org/wiki/Ortimont"
  },
  {
    "pageid": 426298,
    "ns": 0,
    "title": "Abbaye Saint-Pierre d'\u00c9tival",
    "lat": 48.3645,
    "lon": 6.8661,
    "dist": 3717.8,
    "primary": "",
    "url": "https://fr.wikipedia.org/wiki/Abbaye%20Saint-Pierre%20d%27%C3%89tival"
  },
  {
    "pageid": 8112528,
    "ns": 0,
    "title": "Pont celtique d'\u00c9tival-Clairefontaine",
    "lat": 48.3646,
    "lon": 6.8661,
    "dist": 3727.4,
    "primary": "",
    "url": "https://fr.wikipedia.org/wiki/Pont%20celtique%20d%27%C3%89tival-Clairefontaine"
  },
  {
    "pageid": 99847,
    "ns": 0,
    "title": "\u00c9tival-Clairefontaine",
    "lat": 48.3646,
    "lon": 6.8661,
    "dist": 3727.4,
    "primary": "",
    "url": "https://fr.wikipedia.org/wiki/%C3%89tival-Clairefontaine"
  },
  {
    "pageid": 980061,
    "ns": 0,
    "title": "Papeteries de Clairefontaine",
    "lat": 48.367327,
    "lon": 6.874298,
    "dist": 4309.7,
    "primary": "",
    "url": "https://fr.wikipedia.org/wiki/Papeteries%20de%20Clairefontaine"
  },
  {
    "pageid": 198976,
    "ns": 0,
    "title": "La Voivre (Vosges)",
    "lat": 48.3341666667,
    "lon": 6.90027777778,
    "dist": 4400,
    "primary": "",
    "url": "https://fr.wikipedia.org/wiki/La%20Voivre%20%28Vosges%29"
  },
  {
    "pageid": 1697937,
    "ns": 0,
    "title": "Gare d'\u00c9tival-Clairefontaine",
    "lat": 48.367201,
    "lon": 6.876946,
    "dist": 4413.8,
    "primary": "",
    "url": "https://fr.wikipedia.org/wiki/Gare%20d%27%C3%89tival-Clairefontaine"
  },
  {
    "pageid": 8057339,
    "ns": 0,
    "title": "Pierre d'Appel",
    "lat": 48.3763628,
    "lon": 6.8631687,
    "dist": 4824.4,
    "primary": "",
    "url": "https://fr.wikipedia.org/wiki/Pierre%20d%27Appel"
  },
  {
    "pageid": 1858797,
    "ns": 0,
    "title": "Gare du Rabodeau",
    "lat": 48.376388,
    "lon": 6.880378,
    "dist": 5396.5,
    "primary": "",
    "url": "https://fr.wikipedia.org/wiki/Gare%20du%20Rabodeau"
  },
  {
    "pageid": 342726,
    "ns": 0,
    "title": "Rabodeau",
    "lat": 48.38222222,
    "lon": 6.86833333,
    "dist": 5568.9,
    "primary": "",
    "url": "https://fr.wikipedia.org/wiki/Rabodeau"
  },
  {
    "pageid": 3665765,
    "ns": 0,
    "title": "Abbaye Saint-Hydulphe de Moyenmoutier",
    "lat": 48.378716,
    "lon": 6.912814,
    "dist": 7162.4,
    "primary": "",
    "url": "https://fr.wikipedia.org/wiki/Abbaye%20Saint-Hydulphe%20de%20Moyenmoutier"
  },
  {
    "pageid": 198173,
    "ns": 0,
    "title": "Hurbache",
    "lat": 48.3505555556,
    "lon": 6.93527777778,
    "dist": 7178.4,
    "primary": "",
    "url": "https://fr.wikipedia.org/wiki/Hurbache"
  },
  {
    "pageid": 1858793,
    "ns": 0,
    "title": "Gare de Moyenmoutier",
    "lat": 48.377988,
    "lon": 6.914996,
    "dist": 7229.9,
    "primary": "",
    "url": "https://fr.wikipedia.org/wiki/Gare%20de%20Moyenmoutier"
  },
  {
    "pageid": 15182506,
    "ns": 0,
    "title": "Unit\u00e9 urbaine de Moyenmoutier",
    "lat": 48.379722222,
    "lon": 6.913333333,
    "dist": 7265.9,
    "primary": "",
    "url": "https://fr.wikipedia.org/wiki/Unit%C3%A9%20urbaine%20de%20Moyenmoutier"
  },
  {
    "pageid": 835556,
    "ns": 0,
    "title": "Camp celtique de la Bure",
    "lat": 48.326269,
    "lon": 6.938245,
    "dist": 7278.6,
    "primary": "",
    "url": "https://fr.wikipedia.org/wiki/Camp%20celtique%20de%20la%20Bure"
  },
  {
    "pageid": 99879,
    "ns": 0,
    "title": "Moyenmoutier",
    "lat": 48.3805555556,
    "lon": 6.91416666667,
    "dist": 7373.9,
    "primary": "",
    "url": "https://fr.wikipedia.org/wiki/Moyenmoutier"
  },
  {
    "pageid": 4767644,
    "ns": 0,
    "title": "Marzelay",
    "lat": 48.309155,
    "lon": 6.936382,
    "dist": 7655.1,
    "primary": "",
    "url": "https://fr.wikipedia.org/wiki/Marzelay"
  },
  {
    "pageid": 171214,
    "ns": 0,
    "title": "Canton de Raon-l'\u00c9tape",
    "lat": 48.405833055556,
    "lon": 6.8411111111111,
    "dist": 7809.2,
    "primary": "",
    "url": "https://fr.wikipedia.org/wiki/Canton%20de%20Raon-l%27%C3%89tape"
  },
  {
    "pageid": 15210087,
    "ns": 0,
    "title": "Unit\u00e9 urbaine de Raon-l'\u00c9tape",
    "lat": 48.405833333,
    "lon": 6.841111111,
    "dist": 7809.3,
    "primary": "",
    "url": "https://fr.wikipedia.org/wiki/Unit%C3%A9%20urbaine%20de%20Raon-l%27%C3%89tape"
  },
  {
    "pageid": 10310977,
    "ns": 0,
    "title": "Fontaine des Quatre Lions",
    "lat": 48.4062,
    "lon": 6.8452,
    "dist": 7856.8,
    "primary": "",
    "url": "https://fr.wikipedia.org/wiki/Fontaine%20des%20Quatre%20Lions"
  },
  {
    "pageid": 14911921,
    "ns": 0,
    "title": "Halle aux bl\u00e9s de Raon-l'\u00c9tape",
    "lat": 48.406817,
    "lon": 6.84422,
    "dist": 7922.7,
    "primary": "",
    "url": "https://fr.wikipedia.org/wiki/Halle%20aux%20bl%C3%A9s%20de%20Raon-l%27%C3%89tape"
  },
  {
    "pageid": 60946,
    "ns": 0,
    "title": "Raon-l'\u00c9tape",
    "lat": 48.407233,
    "lon": 6.84385,
    "dist": 7968.1,
    "primary": "",
    "url": "https://fr.wikipedia.org/wiki/Raon-l%27%C3%89tape"
  },
  {
    "pageid": 14911402,
    "ns": 0,
    "title": "H\u00f4tel de ville de Raon-l'\u00c9tape",
    "lat": 48.407233,
    "lon": 6.843882,
    "dist": 7968.1,
    "primary": "",
    "url": "https://fr.wikipedia.org/wiki/H%C3%B4tel%20de%20ville%20de%20Raon-l%27%C3%89tape"
  },
  {
    "pageid": 14911174,
    "ns": 0,
    "title": "\u00c9glise Saint-Luc de Raon-l'\u00c9tape",
    "lat": 48.408012117272,
    "lon": 6.8444584508213,
    "dist": 8056.1,
    "primary": "",
    "url": "https://fr.wikipedia.org/wiki/%C3%89glise%20Saint-Luc%20de%20Raon-l%27%C3%89tape"
  },
  {
    "pageid": 4873229,
    "ns": 0,
    "title": "Motel l'Eau Vive",
    "lat": 48.4083556,
    "lon": 6.848175,
    "dist": 8108.1,
    "primary": "",
    "url": "https://fr.wikipedia.org/wiki/Motel%20l%27Eau%20Vive"
  },
  {
    "pageid": 4521239,
    "ns": 0,
    "title": "Rittempierre",
    "lat": 48.31889,
    "lon": 6.95333,
    "dist": 8525,
    "primary": "",
    "url": "https://fr.wikipedia.org/wiki/Rittempierre"
  },
  {
    "pageid": 12771888,
    "ns": 0,
    "title": "Maison du Docteur Gauthier",
    "lat": 48.303379,
    "lon": 6.946342,
    "dist": 8587.7,
    "primary": "",
    "url": "https://fr.wikipedia.org/wiki/Maison%20du%20Docteur%20Gauthier"
  },
  {
    "pageid": 4520971,
    "ns": 0,
    "title": "Roche des Corbeaux",
    "lat": 48.32194,
    "lon": 6.95667,
    "dist": 8700.3,
    "primary": "",
    "url": "https://fr.wikipedia.org/wiki/Roche%20des%20Corbeaux"
  },
  {
    "pageid": 10195123,
    "ns": 0,
    "title": "Robache (Vosges)",
    "lat": 48.307193,
    "lon": 6.956154,
    "dist": 9095.9,
    "primary": "",
    "url": "https://fr.wikipedia.org/wiki/Robache%20%28Vosges%29"
  },
  {
    "pageid": 198163,
    "ns": 0,
    "title": "Denipaire",
    "lat": 48.3436111111,
    "lon": 6.96666666667,
    "dist": 9346.2,
    "primary": "",
    "url": "https://fr.wikipedia.org/wiki/Denipaire"
  },
  {
    "pageid": 310265,
    "ns": 0,
    "title": "Neufmaisons",
    "lat": 48.4592,
    "lon": 6.8489,
    "dist": 3773.5,
    "primary": "",
    "url": "https://fr.wikipedia.org/wiki/Neufmaisons"
  },
  {
    "pageid": 15177324,
    "ns": 0,
    "title": "Scierie Lajus",
    "lat": 48.438447,
    "lon": 6.925571,
    "dist": 6413.6,
    "primary": "",
    "url": "https://fr.wikipedia.org/wiki/Scierie%20Lajus"
  },
  {
    "pageid": 8516595,
    "ns": 0,
    "title": "Barrage du lac de Pierre-Perc\u00e9e",
    "lat": 48.453736,
    "lon": 6.91902,
    "dist": 6559.2,
    "primary": "",
    "url": "https://fr.wikipedia.org/wiki/Barrage%20du%20lac%20de%20Pierre-Perc%C3%A9e"
  },
  {
    "pageid": 310294,
    "ns": 0,
    "title": "Pexonne",
    "lat": 48.4839,
    "lon": 6.8775,
    "dist": 7015.6,
    "primary": "",
    "url": "https://fr.wikipedia.org/wiki/Pexonne"
  },
  {
    "pageid": 289318,
    "ns": 0,
    "title": "Lac de Pierre-Perc\u00e9e",
    "lat": 48.467,
    "lon": 6.917,
    "dist": 7258.8,
    "primary": "",
    "url": "https://fr.wikipedia.org/wiki/Lac%20de%20Pierre-Perc%C3%A9e"
  },
  {
    "pageid": 1050260,
    "ns": 0,
    "title": "Lac de la Plaine",
    "lat": 48.44662,
    "lon": 6.934083,
    "dist": 7265,
    "primary": "",
    "url": "https://fr.wikipedia.org/wiki/Lac%20de%20la%20Plaine"
  },
  {
    "pageid": 310054,
    "ns": 0,
    "title": "Fenneviller",
    "lat": 48.4878,
    "lon": 6.8822,
    "dist": 7550.9,
    "primary": "",
    "url": "https://fr.wikipedia.org/wiki/Fenneviller"
  },
  {
    "pageid": 17333073,
    "ns": 0,
    "title": "Bas-relief sculpt\u00e9 \u00e0 la m\u00e9moire des soldats du 363e r\u00e9giment d'infanterie de Pierre-Perc\u00e9e",
    "lat": 48.468731392331,
    "lon": 6.9257935153416,
    "dist": 7887.1,
    "primary": "",
    "url": "https://fr.wikipedia.org/wiki/Bas-relief%20sculpt%C3%A9%20%C3%A0%20la%20m%C3%A9moire%20des%20soldats%20du%20363e%20r%C3%A9giment%20d%27infanterie%20de%20Pierre-Perc%C3%A9e"
  },
  {
    "pageid": 2673260,
    "ns": 0,
    "title": "Ch\u00e2teau de Pierre-Perc\u00e9e",
    "lat": 48.4702,
    "lon": 6.9302,
    "dist": 8244.8,
    "primary": "",
    "url": "https://fr.wikipedia.org/wiki/Ch%C3%A2teau%20de%20Pierre-Perc%C3%A9e"
  },
  {
    "pageid": 310298,
    "ns": 0,
    "title": "Pierre-Perc\u00e9e",
    "lat": 48.4694,
    "lon": 6.9331,
    "dist": 8364.9,
    "primary": "",
    "url": "https://fr.wikipedia.org/wiki/Pierre-Perc%C3%A9e"
  },
  {
    "pageid": 197905,
    "ns": 0,
    "title": "Celles-sur-Plaine",
    "lat": 48.4569444444,
    "lon": 6.95055555556,
    "dist": 8810.9,
    "primary": "",
    "url": "https://fr.wikipedia.org/wiki/Celles-sur-Plaine"
  },
  {
    "pageid": 38023,
    "ns": 0,
    "title": "Badonviller",
    "lat": 48.5,
    "lon": 6.8931,
    "dist": 9118.4,
    "primary": "",
    "url": "https://fr.wikipedia.org/wiki/Badonviller"
  },
  {
    "pageid": 310354,
    "ns": 0,
    "title": "Saint-Maurice-aux-Forges",
    "lat": 48.5111,
    "lon": 6.8483,
    "dist": 9512.9,
    "primary": "",
    "url": "https://fr.wikipedia.org/wiki/Saint-Maurice-aux-Forges"
  },
  {
    "pageid": 711879,
    "ns": 0,
    "title": "Canton de Badonviller",
    "lat": 48.49773519,
    "lon": 6.91214091,
    "dist": 9583.7,
    "primary": "",
    "url": "https://fr.wikipedia.org/wiki/Canton%20de%20Badonviller"
  },
  {
    "pageid": 310267,
    "ns": 0,
    "title": "Neuviller-l\u00e8s-Badonviller",
    "lat": 48.5183,
    "lon": 6.8747,
    "dist": 2513,
    "primary": "",
    "url": "https://fr.wikipedia.org/wiki/Neuviller-l%C3%A8s-Badonviller"
  },
  {
    "pageid": 310251,
    "ns": 0,
    "title": "Montreux (Meurthe-et-Moselle)",
    "lat": 48.5363888889,
    "lon": 6.88305555556,
    "dist": 3864.7,
    "primary": "",
    "url": "https://fr.wikipedia.org/wiki/Montreux%20%28Meurthe-et-Moselle%29"
  },
  {
    "pageid": 310108,
    "ns": 0,
    "title": "Halloville",
    "lat": 48.555,
    "lon": 6.86194444444,
    "dist": 4630.4,
    "primary": "",
    "url": "https://fr.wikipedia.org/wiki/Halloville"
  },
  {
    "pageid": 310270,
    "ns": 0,
    "title": "Nonhigny",
    "lat": 48.5513888889,
    "lon": 6.88111111111,
    "dist": 4948.5,
    "primary": "",
    "url": "https://fr.wikipedia.org/wiki/Nonhigny"
  },
  {
    "pageid": 309953,
    "ns": 0,
    "title": "Br\u00e9m\u00e9nil",
    "lat": 48.5242,
    "lon": 6.9194,
    "dist": 5864.6,
    "primary": "",
    "url": "https://fr.wikipedia.org/wiki/Br%C3%A9m%C3%A9nil"
  },
  {
    "pageid": 309900,
    "ns": 0,
    "title": "Barbas",
    "lat": 48.5738888889,
    "lon": 6.84777777778,
    "dist": 6481.5,
    "primary": "",
    "url": "https://fr.wikipedia.org/wiki/Barbas"
  },
  {
    "pageid": 310290,
    "ns": 0,
    "title": "Parux",
    "lat": 48.5397,
    "lon": 6.9225,
    "dist": 6578.4,
    "primary": "",
    "url": "https://fr.wikipedia.org/wiki/Parux"
  },
  {
    "pageid": 310116,
    "ns": 0,
    "title": "Harbouey",
    "lat": 48.5705555556,
    "lon": 6.8875,
    "dist": 6994,
    "primary": "",
    "url": "https://fr.wikipedia.org/wiki/Harbouey"
  },
  {
    "pageid": 283050,
    "ns": 0,
    "title": "Angomont",
    "lat": 48.5169,
    "lon": 6.9472,
    "dist": 7838.5,
    "primary": "",
    "url": "https://fr.wikipedia.org/wiki/Angomont"
  },
  {
    "pageid": 309934,
    "ns": 0,
    "title": "Bl\u00e2mont",
    "lat": 48.5905555556,
    "lon": 6.84305555556,
    "dist": 8316,
    "primary": "",
    "url": "https://fr.wikipedia.org/wiki/Bl%C3%A2mont"
  },
  {
    "pageid": 994268,
    "ns": 0,
    "title": "Ch\u00e2teau de Bl\u00e2mont",
    "lat": 48.5914,
    "lon": 6.8453,
    "dist": 8414.7,
    "primary": "",
    "url": "https://fr.wikipedia.org/wiki/Ch%C3%A2teau%20de%20Bl%C3%A2mont"
  },
  {
    "pageid": 3338521,
    "ns": 0,
    "title": "Col de la Chapelotte",
    "lat": 48.48361,
    "lon": 6.95611,
    "dist": 9219.1,
    "primary": "",
    "url": "https://fr.wikipedia.org/wiki/Col%20de%20la%20Chapelotte"
  },
  {
    "pageid": 310074,
    "ns": 0,
    "title": "Fr\u00e9monville",
    "lat": 48.5961111111,
    "lon": 6.8875,
    "dist": 9570.7,
    "primary": "",
    "url": "https://fr.wikipedia.org/wiki/Fr%C3%A9monville"
  },
  {
    "pageid": 310292,
    "ns": 0,
    "title": "Petitmont",
    "lat": 48.5581,
    "lon": 6.9575,
    "dist": 9796.7,
    "primary": "",
    "url": "https://fr.wikipedia.org/wiki/Petitmont"
  },
  {
    "pageid": 310093,
    "ns": 0,
    "title": "Gogney",
    "lat": 48.6141666667,
    "lon": 6.85916666667,
    "dist": 1635.6,
    "primary": "",
    "url": "https://fr.wikipedia.org/wiki/Gogney"
  },
  {
    "pageid": 309295,
    "ns": 0,
    "title": "Foulcrey",
    "lat": 48.6386111111,
    "lon": 6.85805555556,
    "dist": 3855,
    "primary": "",
    "url": "https://fr.wikipedia.org/wiki/Foulcrey"
  },
  {
    "pageid": 1198882,
    "ns": 0,
    "title": "La Haie-des-Allemands",
    "lat": 48.622852,
    "lon": 6.904298,
    "dist": 5035.8,
    "primary": "",
    "url": "https://fr.wikipedia.org/wiki/La%20Haie-des-Allemands"
  },
  {
    "pageid": 309408,
    "ns": 0,
    "title": "Ibigny",
    "lat": 48.6439,
    "lon": 6.9003,
    "dist": 6083.4,
    "primary": "",
    "url": "https://fr.wikipedia.org/wiki/Ibigny"
  },
  {
    "pageid": 309640,
    "ns": 0,
    "title": "Richeval",
    "lat": 48.6367,
    "lon": 6.9117,
    "dist": 6238.1,
    "primary": "",
    "url": "https://fr.wikipedia.org/wiki/Richeval"
  },
  {
    "pageid": 309620,
    "ns": 0,
    "title": "R\u00e9chicourt-le-Ch\u00e2teau",
    "lat": 48.6655555556,
    "lon": 6.84111111111,
    "dist": 6636.4,
    "primary": "",
    "url": "https://fr.wikipedia.org/wiki/R%C3%A9chicourt-le-Ch%C3%A2teau"
  },
  {
    "pageid": 8220180,
    "ns": 0,
    "title": "Gare de R\u00e9chicourt-le-Ch\u00e2teau",
    "lat": 48.665433,
    "lon": 6.848494,
    "dist": 6646.9,
    "primary": "",
    "url": "https://fr.wikipedia.org/wiki/Gare%20de%20R%C3%A9chicourt-le-Ch%C3%A2teau"
  },
  {
    "pageid": 310381,
    "ns": 0,
    "title": "Tanconville",
    "lat": 48.6058,
    "lon": 6.9344,
    "dist": 6882.6,
    "primary": "",
    "url": "https://fr.wikipedia.org/wiki/Tanconville"
  },
  {
    "pageid": 49090,
    "ns": 0,
    "title": "Vezouze",
    "lat": 48.5814,
    "lon": 6.94583,
    "dist": 8190.1,
    "primary": "",
    "url": "https://fr.wikipedia.org/wiki/Vezouze"
  },
  {
    "pageid": 309983,
    "ns": 0,
    "title": "Cirey-sur-Vezouze",
    "lat": 48.5816666667,
    "lon": 6.94833333333,
    "dist": 8354.4,
    "primary": "",
    "url": "https://fr.wikipedia.org/wiki/Cirey-sur-Vezouze"
  },
  {
    "pageid": 309671,
    "ns": 0,
    "title": "Saint-Georges (Moselle)",
    "lat": 48.6583,
    "lon": 6.9297,
    "dist": 8756.2,
    "primary": "",
    "url": "https://fr.wikipedia.org/wiki/Saint-Georges%20%28Moselle%29"
  },
  {
    "pageid": 673673,
    "ns": 0,
    "title": "Canton de Cirey-sur-Vezouze",
    "lat": 48.56846914,
    "lon": 6.95515471,
    "dist": 9383.8,
    "primary": "",
    "url": "https://fr.wikipedia.org/wiki/Canton%20de%20Cirey-sur-Vezouze"
  },
  {
    "pageid": 6836159,
    "ns": 0,
    "title": "\u00c9cluse de R\u00e9chicourt-le-Ch\u00e2teau",
    "lat": 48.692202053698,
    "lon": 6.8451364660304,
    "dist": 9604.6,
    "primary": "",
    "url": "https://fr.wikipedia.org/wiki/%C3%89cluse%20de%20R%C3%A9chicourt-le-Ch%C3%A2teau"
  },
  {
    "pageid": 309363,
    "ns": 0,
    "title": "Hattigny",
    "lat": 48.6322222222,
    "lon": 6.96583333333,
    "dist": 9647,
    "primary": "",
    "url": "https://fr.wikipedia.org/wiki/Hattigny"
  },
  {
    "pageid": 716832,
    "ns": 0,
    "title": "Canton de R\u00e9chicourt-le-Ch\u00e2teau",
    "lat": 48.69678043,
    "lon": 6.8599,
    "dist": 1405.3,
    "primary": "",
    "url": "https://fr.wikipedia.org/wiki/Canton%20de%20R%C3%A9chicourt-le-Ch%C3%A2teau"
  },
  {
    "pageid": 10652003,
    "ns": 0,
    "title": "\u00c9tang de Gondrexange",
    "lat": 48.708068,
    "lon": 6.900101,
    "dist": 4555.7,
    "primary": "",
    "url": "https://fr.wikipedia.org/wiki/%C3%89tang%20de%20Gondrexange"
  },
  {
    "pageid": 611915,
    "ns": 0,
    "title": "Canal des houill\u00e8res de la Sarre",
    "lat": 48.70027778,
    "lon": 6.90972222,
    "dist": 5081.5,
    "primary": "",
    "url": "https://fr.wikipedia.org/wiki/Canal%20des%20houill%C3%A8res%20de%20la%20Sarre"
  },
  {
    "pageid": 309447,
    "ns": 0,
    "title": "Languimberg",
    "lat": 48.7467,
    "lon": 6.86,
    "dist": 5814.9,
    "primary": "",
    "url": "https://fr.wikipedia.org/wiki/Languimberg"
  },
  {
    "pageid": 309317,
    "ns": 0,
    "title": "Gondrexange",
    "lat": 48.685,
    "lon": 6.9283,
    "dist": 6537.9,
    "primary": "",
    "url": "https://fr.wikipedia.org/wiki/Gondrexange"
  },
  {
    "pageid": 8220148,
    "ns": 0,
    "title": "Gare de Gondrexange",
    "lat": 48.682615,
    "lon": 6.931837,
    "dist": 6845.9,
    "primary": "",
    "url": "https://fr.wikipedia.org/wiki/Gare%20de%20Gondrexange"
  },
  {
    "pageid": 1156763,
    "ns": 0,
    "title": "Diane-et-Kerprich",
    "lat": 48.728888888,
    "lon": 6.933888888,
    "dist": 7749.8,
    "primary": "",
    "url": "https://fr.wikipedia.org/wiki/Diane-et-Kerprich"
  },
  {
    "pageid": 309241,
    "ns": 0,
    "title": "Diane-Capelle",
    "lat": 48.7297,
    "lon": 6.9347,
    "dist": 7845,
    "primary": "",
    "url": "https://fr.wikipedia.org/wiki/Diane-Capelle"
  },
  {
    "pageid": 309306,
    "ns": 0,
    "title": "Fribourg (Moselle)",
    "lat": 48.7672,
    "lon": 6.8572,
    "dist": 8012,
    "primary": "",
    "url": "https://fr.wikipedia.org/wiki/Fribourg%20%28Moselle%29"
  },
  {
    "pageid": 309636,
    "ns": 0,
    "title": "Rhodes (Moselle)",
    "lat": 48.7597,
    "lon": 6.8981,
    "dist": 8239.9,
    "primary": "",
    "url": "https://fr.wikipedia.org/wiki/Rhodes%20%28Moselle%29"
  },
  {
    "pageid": 309384,
    "ns": 0,
    "title": "Hertzing",
    "lat": 48.6883,
    "lon": 6.9525,
    "dist": 8243.5,
    "primary": "",
    "url": "https://fr.wikipedia.org/wiki/Hertzing"
  },
  {
    "pageid": 10649968,
    "ns": 0,
    "title": "\u00c9tang du Stock",
    "lat": 48.75,
    "lon": 6.93333,
    "dist": 9065.4,
    "primary": "",
    "url": "https://fr.wikipedia.org/wiki/%C3%89tang%20du%20Stock"
  },
  {
    "pageid": 309120,
    "ns": 0,
    "title": "Barchain",
    "lat": 48.7080555556,
    "lon": 6.96305555556,
    "dist": 9072.5,
    "primary": "",
    "url": "https://fr.wikipedia.org/wiki/Barchain"
  },
  {
    "pageid": 309442,
    "ns": 0,
    "title": "Landange",
    "lat": 48.6716666667,
    "lon": 6.95944444444,
    "dist": 9119.9,
    "primary": "",
    "url": "https://fr.wikipedia.org/wiki/Landange"
  },
  {
    "pageid": 309377,
    "ns": 0,
    "title": "H\u00e9ming",
    "lat": 48.695,
    "lon": 6.9675,
    "dist": 9300.3,
    "primary": "",
    "url": "https://fr.wikipedia.org/wiki/H%C3%A9ming"
  },
  {
    "pageid": 926374,
    "ns": 0,
    "title": "Parc animalier de Sainte-Croix",
    "lat": 48.7729,
    "lon": 6.8906,
    "dist": 9302.1,
    "primary": "",
    "url": "https://fr.wikipedia.org/wiki/Parc%20animalier%20de%20Sainte-Croix"
  },
  {
    "pageid": 309560,
    "ns": 0,
    "title": "Neufmoulins",
    "lat": 48.6825,
    "lon": 6.9681,
    "dist": 9464.1,
    "primary": "",
    "url": "https://fr.wikipedia.org/wiki/Neufmoulins"
  },
  {
    "pageid": 8111791,
    "ns": 0,
    "title": "Gare de H\u00e9ming",
    "lat": 48.691767,
    "lon": 6.971374,
    "dist": 9595.7,
    "primary": "",
    "url": "https://fr.wikipedia.org/wiki/Gare%20de%20H%C3%A9ming"
  },
  {
    "pageid": 309238,
    "ns": 0,
    "title": "Desseling",
    "lat": 48.7853,
    "lon": 6.8447,
    "dist": 9937.9,
    "primary": "",
    "url": "https://fr.wikipedia.org/wiki/Desseling"
  },
  {
    "pageid": 1035569,
    "ns": 0,
    "title": "Pays des \u00e9tangs",
    "lat": 48.78818124,
    "lon": 6.85756293,
    "dist": 1251.2,
    "primary": "",
    "url": "https://fr.wikipedia.org/wiki/Pays%20des%20%C3%A9tangs"
  },
  {
    "pageid": 309129,
    "ns": 0,
    "title": "Belles-For\u00eats",
    "lat": 48.8064,
    "lon": 6.8928,
    "dist": 4430.6,
    "primary": "",
    "url": "https://fr.wikipedia.org/wiki/Belles-For%C3%AAts"
  },
  {
    "pageid": 1156724,
    "ns": 0,
    "title": "Bisping",
    "lat": 48.805457,
    "lon": 6.893692,
    "dist": 4435,
    "primary": "",
    "url": "https://fr.wikipedia.org/wiki/Bisping"
  },
  {
    "pageid": 842939,
    "ns": 0,
    "title": "Angviller-l\u00e8s-Bisping",
    "lat": 48.816963,
    "lon": 6.879802,
    "dist": 4469.4,
    "primary": "",
    "url": "https://fr.wikipedia.org/wiki/Angviller-l%C3%A8s-Bisping"
  },
  {
    "pageid": 309652,
    "ns": 0,
    "title": "Rorbach-l\u00e8s-Dieuze",
    "lat": 48.8308,
    "lon": 6.8436,
    "dist": 4979.8,
    "primary": "",
    "url": "https://fr.wikipedia.org/wiki/Rorbach-l%C3%A8s-Dieuze"
  },
  {
    "pageid": 309482,
    "ns": 0,
    "title": "Loudrefing",
    "lat": 48.8525,
    "lon": 6.8797,
    "dist": 7918.6,
    "primary": "",
    "url": "https://fr.wikipedia.org/wiki/Loudrefing"
  },
  {
    "pageid": 309481,
    "ns": 0,
    "title": "Lostroff",
    "lat": 48.8597,
    "lon": 6.8536,
    "dist": 8242.6,
    "primary": "",
    "url": "https://fr.wikipedia.org/wiki/Lostroff"
  },
  {
    "pageid": 10277180,
    "ns": 0,
    "title": "Gare de Loudrefing",
    "lat": 48.858179,
    "lon": 6.88206,
    "dist": 8570.2,
    "primary": "",
    "url": "https://fr.wikipedia.org/wiki/Gare%20de%20Loudrefing"
  },
  {
    "pageid": 10650933,
    "ns": 0,
    "title": "Canal des Salines de l'Est",
    "lat": 48.859386,
    "lon": 6.886258,
    "dist": 8807.4,
    "primary": "",
    "url": "https://fr.wikipedia.org/wiki/Canal%20des%20Salines%20de%20l%27Est"
  },
  {
    "pageid": 10650548,
    "ns": 0,
    "title": "\u00c9tang de Mittersheim",
    "lat": 48.841983,
    "lon": 6.930356,
    "dist": 9037.9,
    "primary": "",
    "url": "https://fr.wikipedia.org/wiki/%C3%89tang%20de%20Mittersheim"
  },
  {
    "pageid": 10283252,
    "ns": 0,
    "title": "Gare de Mittersheim",
    "lat": 48.8572,
    "lon": 6.915391,
    "dist": 9613.2,
    "primary": "",
    "url": "https://fr.wikipedia.org/wiki/Gare%20de%20Mittersheim"
  },
  {
    "pageid": 309340,
    "ns": 0,
    "title": "Guinzeling",
    "lat": 48.88,
    "lon": 6.8431,
    "dist": 460.8,
    "primary": "",
    "url": "https://fr.wikipedia.org/wiki/Guinzeling"
  },
  {
    "pageid": 309463,
    "ns": 0,
    "title": "Lhor",
    "lat": 48.89,
    "lon": 6.8703,
    "dist": 2651.2,
    "primary": "",
    "url": "https://fr.wikipedia.org/wiki/Lhor"
  },
  {
    "pageid": 312480,
    "ns": 0,
    "title": "Torcheville",
    "lat": 48.9106,
    "lon": 6.8494,
    "dist": 3882.7,
    "primary": "",
    "url": "https://fr.wikipedia.org/wiki/Torcheville"
  },
  {
    "pageid": 309415,
    "ns": 0,
    "title": "Insviller",
    "lat": 48.8886,
    "lon": 6.8972,
    "dist": 4351,
    "primary": "",
    "url": "https://fr.wikipedia.org/wiki/Insviller"
  },
  {
    "pageid": 5458557,
    "ns": 0,
    "title": "\u00c9glise Saint-Nicolas de Munster",
    "lat": 48.9152,
    "lon": 6.9048,
    "dist": 6383.9,
    "primary": "",
    "url": "https://fr.wikipedia.org/wiki/%C3%89glise%20Saint-Nicolas%20de%20Munster"
  },
  {
    "pageid": 309079,
    "ns": 0,
    "title": "Albestroff",
    "lat": 48.9331,
    "lon": 6.8572,
    "dist": 6445.8,
    "primary": "",
    "url": "https://fr.wikipedia.org/wiki/Albestroff"
  },
  {
    "pageid": 10169752,
    "ns": 0,
    "title": "\u00c9glise Saint-Adelphe d'Albestroff",
    "lat": 48.9331,
    "lon": 6.8572,
    "dist": 6445.8,
    "primary": "",
    "url": "https://fr.wikipedia.org/wiki/%C3%89glise%20Saint-Adelphe%20d%27Albestroff"
  },
  {
    "pageid": 309554,
    "ns": 0,
    "title": "Munster (Moselle)",
    "lat": 48.9161111111,
    "lon": 6.90666666667,
    "dist": 6552.9,
    "primary": "",
    "url": "https://fr.wikipedia.org/wiki/Munster%20%28Moselle%29"
  },
  {
    "pageid": 309528,
    "ns": 0,
    "title": "Mittersheim",
    "lat": 48.8617,
    "lon": 6.9428,
    "dist": 7631.9,
    "primary": "",
    "url": "https://fr.wikipedia.org/wiki/Mittersheim"
  },
  {
    "pageid": 309312,
    "ns": 0,
    "title": "Givrycourt",
    "lat": 48.9239,
    "lon": 6.9186,
    "dist": 7781.1,
    "primary": "",
    "url": "https://fr.wikipedia.org/wiki/Givrycourt"
  },
  {
    "pageid": 309785,
    "ns": 0,
    "title": "Vibersviller",
    "lat": 48.915,
    "lon": 6.945,
    "dist": 8757.8,
    "primary": "",
    "url": "https://fr.wikipedia.org/wiki/Vibersviller"
  },
  {
    "pageid": 309631,
    "ns": 0,
    "title": "R\u00e9ning",
    "lat": 48.9556,
    "lon": 6.8533,
    "dist": 8882.3,
    "primary": "",
    "url": "https://fr.wikipedia.org/wiki/R%C3%A9ning"
  },
  {
    "pageid": 4484685,
    "ns": 0,
    "title": "Insming",
    "lat": 48.9567,
    "lon": 6.875,
    "dist": 9299.7,
    "primary": "",
    "url": "https://fr.wikipedia.org/wiki/Insming"
  },
  {
    "pageid": 309322,
    "ns": 0,
    "title": "Gr\u00e9ning",
    "lat": 48.9728,
    "lon": 6.8442,
    "dist": 771.3,
    "primary": "",
    "url": "https://fr.wikipedia.org/wiki/Gr%C3%A9ning"
  },
  {
    "pageid": 309557,
    "ns": 0,
    "title": "Nelling",
    "lat": 48.9653,
    "lon": 6.8678,
    "dist": 1974.2,
    "primary": "",
    "url": "https://fr.wikipedia.org/wiki/Nelling"
  },
  {
    "pageid": 309594,
    "ns": 0,
    "title": "Petit-Tenquin",
    "lat": 48.9894,
    "lon": 6.8622,
    "dist": 3012.7,
    "primary": "",
    "url": "https://fr.wikipedia.org/wiki/Petit-Tenquin"
  },
  {
    "pageid": 309246,
    "ns": 0,
    "title": "Diffembach-l\u00e8s-Hellimer",
    "lat": 49.0033,
    "lon": 6.8425,
    "dist": 4123.5,
    "primary": "",
    "url": "https://fr.wikipedia.org/wiki/Diffembach-l%C3%A8s-Hellimer"
  },
  {
    "pageid": 1225598,
    "ns": 0,
    "title": "Uberkinger",
    "lat": 48.976093,
    "lon": 6.908816,
    "dist": 5084.8,
    "primary": "",
    "url": "https://fr.wikipedia.org/wiki/Uberkinger"
  },
  {
    "pageid": 309424,
    "ns": 0,
    "title": "Kappelkinger",
    "lat": 48.9719,
    "lon": 6.91,
    "dist": 5090.9,
    "primary": "",
    "url": "https://fr.wikipedia.org/wiki/Kappelkinger"
  },
  {
    "pageid": 309797,
    "ns": 0,
    "title": "Vittersbourg",
    "lat": 48.9508333333,
    "lon": 6.92944444444,
    "dist": 6695.2,
    "primary": "",
    "url": "https://fr.wikipedia.org/wiki/Vittersbourg"
  },
  {
    "pageid": 309370,
    "ns": 0,
    "title": "Hazembourg",
    "lat": 48.9678,
    "lon": 6.9336,
    "dist": 6777,
    "primary": "",
    "url": "https://fr.wikipedia.org/wiki/Hazembourg"
  },
  {
    "pageid": 309674,
    "ns": 0,
    "title": "Saint-Jean-Rohrbach",
    "lat": 49.0258,
    "lon": 6.8836,
    "dist": 7322.8,
    "primary": "",
    "url": "https://fr.wikipedia.org/wiki/Saint-Jean-Rohrbach"
  },
  {
    "pageid": 309389,
    "ns": 0,
    "title": "Hilsprich",
    "lat": 49.0139,
    "lon": 6.9133,
    "dist": 7488.8,
    "primary": "",
    "url": "https://fr.wikipedia.org/wiki/Hilsprich"
  },
  {
    "pageid": 1202378,
    "ns": 0,
    "title": "Steinbach (Moselle)",
    "lat": 48.983245,
    "lon": 6.945209,
    "dist": 7852.3,
    "primary": "",
    "url": "https://fr.wikipedia.org/wiki/Steinbach%20%28Moselle%29"
  },
  {
    "pageid": 1202395,
    "ns": 0,
    "title": "Audviller",
    "lat": 48.97356,
    "lon": 6.95239,
    "dist": 8186.6,
    "primary": "",
    "url": "https://fr.wikipedia.org/wiki/Audviller"
  },
  {
    "pageid": 1202392,
    "ns": 0,
    "title": "Castviller",
    "lat": 49.014736,
    "lon": 6.931794,
    "dist": 8554.2,
    "primary": "",
    "url": "https://fr.wikipedia.org/wiki/Castviller"
  },
  {
    "pageid": 309399,
    "ns": 0,
    "title": "Honskirch",
    "lat": 48.9419,
    "lon": 6.9572,
    "dist": 8920.1,
    "primary": "",
    "url": "https://fr.wikipedia.org/wiki/Honskirch"
  },
  {
    "pageid": 309759,
    "ns": 0,
    "title": "Le Val-de-Gu\u00e9blange",
    "lat": 48.9803,
    "lon": 6.9614,
    "dist": 8940.9,
    "primary": "",
    "url": "https://fr.wikipedia.org/wiki/Le%20Val-de-Gu%C3%A9blange"
  },
  {
    "pageid": 668341,
    "ns": 0,
    "title": "Canton de Sarralbe",
    "lat": 49.0070941429,
    "lon": 6.94819114286,
    "dist": 9058.6,
    "primary": "",
    "url": "https://fr.wikipedia.org/wiki/Canton%20de%20Sarralbe"
  },
  {
    "pageid": 7358829,
    "ns": 0,
    "title": "Schweix (Moselle)",
    "lat": 48.981,
    "lon": 6.96623,
    "dist": 9301.6,
    "primary": "",
    "url": "https://fr.wikipedia.org/wiki/Schweix%20%28Moselle%29"
  },
  {
    "pageid": 4742485,
    "ns": 0,
    "title": "Valette (Moselle)",
    "lat": 49.051646,
    "lon": 6.841437,
    "dist": 9497.5,
    "primary": "",
    "url": "https://fr.wikipedia.org/wiki/Valette%20%28Moselle%29"
  },
  {
    "pageid": 4477629,
    "ns": 0,
    "title": "Abbaye de Saint-Sauveur",
    "lat": 48.532798,
    "lon": 6.974988,
    "dist": 1893.2,
    "primary": "",
    "url": "https://fr.wikipedia.org/wiki/Abbaye%20de%20Saint-Sauveur"
  },
  {
    "pageid": 310358,
    "ns": 0,
    "title": "Saint-Sauveur (Meurthe-et-Moselle)",
    "lat": 48.5344,
    "lon": 6.9744,
    "dist": 2073.1,
    "primary": "",
    "url": "https://fr.wikipedia.org/wiki/Saint-Sauveur%20%28Meurthe-et-Moselle%29"
  },
  {
    "pageid": 7010244,
    "ns": 0,
    "title": "Scierie de la Halli\u00e8re",
    "lat": 48.4777,
    "lon": 6.9802,
    "dist": 4246.4,
    "primary": "",
    "url": "https://fr.wikipedia.org/wiki/Scierie%20de%20la%20Halli%C3%A8re"
  },
  {
    "pageid": 309932,
    "ns": 0,
    "title": "Bionville",
    "lat": 48.4847,
    "lon": 7.0114,
    "dist": 4333.2,
    "primary": "",
    "url": "https://fr.wikipedia.org/wiki/Bionville"
  },
  {
    "pageid": 2880896,
    "ns": 0,
    "title": "Abbaye de Bonmoutier",
    "lat": 48.5568,
    "lon": 6.9719,
    "dist": 4570.5,
    "primary": "",
    "url": "https://fr.wikipedia.org/wiki/Abbaye%20de%20Bonmoutier"
  },
  {
    "pageid": 117168,
    "ns": 0,
    "title": "Allarmont",
    "lat": 48.4830555556,
    "lon": 7.01416666667,
    "dist": 4602.3,
    "primary": "",
    "url": "https://fr.wikipedia.org/wiki/Allarmont"
  },
  {
    "pageid": 310408,
    "ns": 0,
    "title": "Val-et-Ch\u00e2tillon",
    "lat": 48.5594,
    "lon": 6.9669,
    "dist": 4895.3,
    "primary": "",
    "url": "https://fr.wikipedia.org/wiki/Val-et-Ch%C3%A2tillon"
  },
  {
    "pageid": 367913,
    "ns": 0,
    "title": "Roc du Taurupt",
    "lat": 48.50917,
    "lon": 7.04583,
    "dist": 5201.3,
    "primary": "",
    "url": "https://fr.wikipedia.org/wiki/Roc%20du%20Taurupt"
  },
  {
    "pageid": 195376,
    "ns": 0,
    "title": "Vexaincourt",
    "lat": 48.4941666667,
    "lon": 7.04638888889,
    "dist": 5720.5,
    "primary": "",
    "url": "https://fr.wikipedia.org/wiki/Vexaincourt"
  },
  {
    "pageid": 195366,
    "ns": 0,
    "title": "Luvigny",
    "lat": 48.5016666667,
    "lon": 7.06972222222,
    "dist": 7085.6,
    "primary": "",
    "url": "https://fr.wikipedia.org/wiki/Luvigny"
  },
  {
    "pageid": 6392427,
    "ns": 0,
    "title": "T\u00eate du Coquin",
    "lat": 48.45306,
    "lon": 7.01083,
    "dist": 7433.8,
    "primary": "",
    "url": "https://fr.wikipedia.org/wiki/T%C3%AAte%20du%20Coquin"
  },
  {
    "pageid": 3713019,
    "ns": 0,
    "title": "Lac de la Maix",
    "lat": 48.476,
    "lon": 7.075,
    "dist": 8535.9,
    "primary": "",
    "url": "https://fr.wikipedia.org/wiki/Lac%20de%20la%20Maix"
  },
  {
    "pageid": 5938117,
    "ns": 0,
    "title": "Temple r\u00e9form\u00e9 de Lafrimbolle",
    "lat": 48.59123,
    "lon": 7.00669,
    "dist": 8689.4,
    "primary": "",
    "url": "https://fr.wikipedia.org/wiki/Temple%20r%C3%A9form%C3%A9%20de%20Lafrimbolle"
  },
  {
    "pageid": 310313,
    "ns": 0,
    "title": "Raon-l\u00e8s-Leau",
    "lat": 48.5139,
    "lon": 7.0947,
    "dist": 8751.1,
    "primary": "",
    "url": "https://fr.wikipedia.org/wiki/Raon-l%C3%A8s-Leau"
  },
  {
    "pageid": 195371,
    "ns": 0,
    "title": "Raon-sur-Plaine",
    "lat": 48.5119444444,
    "lon": 7.0975,
    "dist": 8965.1,
    "primary": "",
    "url": "https://fr.wikipedia.org/wiki/Raon-sur-Plaine"
  },
  {
    "pageid": 1451404,
    "ns": 0,
    "title": "Ch\u00e2teau de Turquestein",
    "lat": 48.588,
    "lon": 7.038,
    "dist": 9238.9,
    "primary": "",
    "url": "https://fr.wikipedia.org/wiki/Ch%C3%A2teau%20de%20Turquestein"
  },
  {
    "pageid": 309438,
    "ns": 0,
    "title": "Lafrimbolle",
    "lat": 48.5953,
    "lon": 7.0194,
    "dist": 9402.9,
    "primary": "",
    "url": "https://fr.wikipedia.org/wiki/Lafrimbolle"
  },
  {
    "pageid": 309920,
    "ns": 0,
    "title": "Bertrambois",
    "lat": 48.6058333333,
    "lon": 6.98694444444,
    "dist": 810,
    "primary": "",
    "url": "https://fr.wikipedia.org/wiki/Bertrambois"
  },
  {
    "pageid": 309299,
    "ns": 0,
    "title": "Fraquelfing",
    "lat": 48.6402777778,
    "lon": 6.98944444444,
    "dist": 3952.5,
    "primary": "",
    "url": "https://fr.wikipedia.org/wiki/Fraquelfing"
  },
  {
    "pageid": 4173359,
    "ns": 0,
    "title": "\u00c9glise Sainte-Th\u00e9r\u00e8se-d'Avila de Niderhoff",
    "lat": 48.637044,
    "lon": 7.006581,
    "dist": 4133.9,
    "primary": "",
    "url": "https://fr.wikipedia.org/wiki/%C3%89glise%20Sainte-Th%C3%A9r%C3%A8se-d%27Avila%20de%20Niderhoff"
  },
  {
    "pageid": 309562,
    "ns": 0,
    "title": "Niderhoff",
    "lat": 48.6383,
    "lon": 7.0078,
    "dist": 4299.9,
    "primary": "",
    "url": "https://fr.wikipedia.org/wiki/Niderhoff"
  },
  {
    "pageid": 716861,
    "ns": 0,
    "title": "Canton de Lorquin",
    "lat": 48.64392561,
    "lon": 7.01846189,
    "dist": 5260.8,
    "primary": "",
    "url": "https://fr.wikipedia.org/wiki/Canton%20de%20Lorquin"
  },
  {
    "pageid": 309105,
    "ns": 0,
    "title": "Aspach (Moselle)",
    "lat": 48.655,
    "lon": 6.96277777778,
    "dist": 5547.5,
    "primary": "",
    "url": "https://fr.wikipedia.org/wiki/Aspach%20%28Moselle%29"
  },
  {
    "pageid": 4171815,
    "ns": 0,
    "title": "Chapelle Notre-Dame-de-Lhor",
    "lat": 48.626009,
    "lon": 7.047136,
    "dist": 5693.3,
    "primary": "",
    "url": "https://fr.wikipedia.org/wiki/Chapelle%20Notre-Dame-de-Lhor"
  },
  {
    "pageid": 309445,
    "ns": 0,
    "title": "Laneuveville-l\u00e8s-Lorquin",
    "lat": 48.6541666667,
    "lon": 7.00277777778,
    "dist": 5721,
    "primary": "",
    "url": "https://fr.wikipedia.org/wiki/Laneuveville-l%C3%A8s-Lorquin"
  },
  {
    "pageid": 309681,
    "ns": 0,
    "title": "Saint-Quirin",
    "lat": 48.610833,
    "lon": 7.065278,
    "dist": 6592.3,
    "primary": "",
    "url": "https://fr.wikipedia.org/wiki/Saint-Quirin"
  },
  {
    "pageid": 309520,
    "ns": 0,
    "title": "M\u00e9tairies-Saint-Quirin",
    "lat": 48.6533333333,
    "lon": 7.04277777778,
    "dist": 7210.1,
    "primary": "",
    "url": "https://fr.wikipedia.org/wiki/M%C3%A9tairies-Saint-Quirin"
  },
  {
    "pageid": 309477,
    "ns": 0,
    "title": "Lorquin",
    "lat": 48.67,
    "lon": 6.9975,
    "dist": 7304.6,
    "primary": "",
    "url": "https://fr.wikipedia.org/wiki/Lorquin"
  },
  {
    "pageid": 76357,
    "ns": 0,
    "title": "Alsace-Lorraine",
    "lat": 48.67,
    "lon": 7,
    "dist": 7346.7,
    "primary": "",
    "url": "https://fr.wikipedia.org/wiki/Alsace-Lorraine"
  },
  {
    "pageid": 16495836,
    "ns": 0,
    "title": "\u00c9glise Sainte-Th\u00e9r\u00e8se de Vasperviller",
    "lat": 48.63218,
    "lon": 7.07194,
    "dist": 7639.7,
    "primary": "",
    "url": "https://fr.wikipedia.org/wiki/%C3%89glise%20Sainte-Th%C3%A9r%C3%A8se%20de%20Vasperviller"
  },
  {
    "pageid": 309773,
    "ns": 0,
    "title": "Vasperviller",
    "lat": 48.6339,
    "lon": 7.0733,
    "dist": 7806.4,
    "primary": "",
    "url": "https://fr.wikipedia.org/wiki/Vasperviller"
  },
  {
    "pageid": 309567,
    "ns": 0,
    "title": "Nitting",
    "lat": 48.6717,
    "lon": 7.0306,
    "dist": 8349.5,
    "primary": "",
    "url": "https://fr.wikipedia.org/wiki/Nitting"
  },
  {
    "pageid": 309382,
    "ns": 0,
    "title": "Hermelange",
    "lat": 48.6803,
    "lon": 7.0178,
    "dist": 8829.2,
    "primary": "",
    "url": "https://fr.wikipedia.org/wiki/Hermelange"
  },
  {
    "pageid": 295863,
    "ns": 0,
    "title": "Voyer (Moselle)",
    "lat": 48.6531,
    "lon": 7.0806,
    "dist": 9314,
    "primary": "",
    "url": "https://fr.wikipedia.org/wiki/Voyer%20%28Moselle%29"
  },
  {
    "pageid": 7052730,
    "ns": 0,
    "title": "Verrerie de Lettenbach",
    "lat": 48.6224,
    "lon": 7.10032,
    "dist": 9327.4,
    "primary": "",
    "url": "https://fr.wikipedia.org/wiki/Verrerie%20de%20Lettenbach"
  },
  {
    "pageid": 309072,
    "ns": 0,
    "title": "Abreschviller",
    "lat": 48.6377777778,
    "lon": 7.0975,
    "dist": 9614.3,
    "primary": "",
    "url": "https://fr.wikipedia.org/wiki/Abreschviller"
  },
  {
    "pageid": 7052610,
    "ns": 0,
    "title": "Site arch\u00e9ologique de la Croix-Guillaume",
    "lat": 48.6111,
    "lon": 7.10721,
    "dist": 9669.6,
    "primary": "",
    "url": "https://fr.wikipedia.org/wiki/Site%20arch%C3%A9ologique%20de%20la%20Croix-Guillaume"
  },
  {
    "pageid": 309750,
    "ns": 0,
    "title": "Turquestein-Blancrupt",
    "lat": 48.57,
    "lon": 7.0975,
    "dist": 9791.3,
    "primary": "",
    "url": "https://fr.wikipedia.org/wiki/Turquestein-Blancrupt"
  },
  {
    "pageid": 309827,
    "ns": 0,
    "title": "Xouaxange",
    "lat": 48.6975,
    "lon": 6.9978,
    "dist": 1614.3,
    "primary": "",
    "url": "https://fr.wikipedia.org/wiki/Xouaxange"
  },
  {
    "pageid": 309126,
    "ns": 0,
    "title": "B\u00e9bing",
    "lat": 48.7128,
    "lon": 6.9972,
    "dist": 2437.5,
    "primary": "",
    "url": "https://fr.wikipedia.org/wiki/B%C3%A9bing"
  },
  {
    "pageid": 13610234,
    "ns": 0,
    "title": "Synagogue de Imling",
    "lat": 48.719857,
    "lon": 7.023802,
    "dist": 4404.4,
    "primary": "",
    "url": "https://fr.wikipedia.org/wiki/Synagogue%20de%20Imling"
  },
  {
    "pageid": 309409,
    "ns": 0,
    "title": "Imling",
    "lat": 48.7203,
    "lon": 7.0244,
    "dist": 4469.1,
    "primary": "",
    "url": "https://fr.wikipedia.org/wiki/Imling"
  },
  {
    "pageid": 309429,
    "ns": 0,
    "title": "Kerprich-aux-Bois",
    "lat": 48.7397,
    "lon": 6.9608,
    "dist": 4988.3,
    "primary": "",
    "url": "https://fr.wikipedia.org/wiki/Kerprich-aux-Bois"
  },
  {
    "pageid": 12724492,
    "ns": 0,
    "title": "C\u00f4te de Hesse",
    "lat": 48.7056,
    "lon": 7.04583,
    "dist": 5240.6,
    "primary": "",
    "url": "https://fr.wikipedia.org/wiki/C%C3%B4te%20de%20Hesse"
  },
  {
    "pageid": 6928577,
    "ns": 0,
    "title": "Abbaye de Hesse",
    "lat": 48.6956,
    "lon": 7.0478,
    "dist": 5275.2,
    "primary": "",
    "url": "https://fr.wikipedia.org/wiki/Abbaye%20de%20Hesse"
  },
  {
    "pageid": 309385,
    "ns": 0,
    "title": "Hesse (Moselle)",
    "lat": 48.6956,
    "lon": 7.0478,
    "dist": 5275.2,
    "primary": "",
    "url": "https://fr.wikipedia.org/wiki/Hesse%20%28Moselle%29"
  },
  {
    "pageid": 14673517,
    "ns": 0,
    "title": "R\u00e9serve de biosph\u00e8re de Moselle-Sud",
    "lat": 48.72223971144,
    "lon": 7.0426987235957,
    "dist": 5704.4,
    "primary": "",
    "url": "https://fr.wikipedia.org/wiki/R%C3%A9serve%20de%20biosph%C3%A8re%20de%20Moselle-Sud"
  },
  {
    "pageid": 8819323,
    "ns": 0,
    "title": "N\u00e9cropole nationale des prisonniers de guerre (1914-1918)",
    "lat": 48.74202,
    "lon": 7.03392,
    "dist": 6657.8,
    "primary": "",
    "url": "https://fr.wikipedia.org/wiki/N%C3%A9cropole%20nationale%20des%20prisonniers%20de%20guerre%20%281914-1918%29"
  },
  {
    "pageid": 3890145,
    "ns": 0,
    "title": "Langatte",
    "lat": 48.7567,
    "lon": 6.9817,
    "dist": 6766.8,
    "primary": "",
    "url": "https://fr.wikipedia.org/wiki/Langatte"
  },
  {
    "pageid": 109324,
    "ns": 0,
    "title": "Arrondissement de Sarrebourg",
    "lat": 48.7333,
    "lon": 7.05,
    "dist": 6838.8,
    "primary": "",
    "url": "https://fr.wikipedia.org/wiki/Arrondissement%20de%20Sarrebourg"
  },
  {
    "pageid": 8978459,
    "ns": 0,
    "title": "Arrondissement de Sarrebourg-Ch\u00e2teau-Salins",
    "lat": 48.733333055556,
    "lon": 7.05,
    "dist": 6841,
    "primary": "",
    "url": "https://fr.wikipedia.org/wiki/Arrondissement%20de%20Sarrebourg-Ch%C3%A2teau-Salins"
  },
  {
    "pageid": 13849975,
    "ns": 0,
    "title": "Mithraeum de Sarrebourg",
    "lat": 48.73028,
    "lon": 7.053751,
    "dist": 6867.5,
    "primary": "",
    "url": "https://fr.wikipedia.org/wiki/Mithraeum%20de%20Sarrebourg"
  },
  {
    "pageid": 567701,
    "ns": 0,
    "title": "Chapelle des Cordeliers de Sarrebourg",
    "lat": 48.735205,
    "lon": 7.053088,
    "dist": 7147.4,
    "primary": "",
    "url": "https://fr.wikipedia.org/wiki/Chapelle%20des%20Cordeliers%20de%20Sarrebourg"
  },
  {
    "pageid": 360087,
    "ns": 0,
    "title": "Canton de Sarrebourg",
    "lat": 48.734721944444,
    "lon": 7.0538888888889,
    "dist": 7161.6,
    "primary": "",
    "url": "https://fr.wikipedia.org/wiki/Canton%20de%20Sarrebourg"
  },
  {
    "pageid": 10157707,
    "ns": 0,
    "title": "Unit\u00e9 urbaine de Sarrebourg",
    "lat": 48.734722222,
    "lon": 7.053888888,
    "dist": 7161.6,
    "primary": "",
    "url": "https://fr.wikipedia.org/wiki/Unit%C3%A9%20urbaine%20de%20Sarrebourg"
  },
  {
    "pageid": 13597940,
    "ns": 0,
    "title": "Synagogue de Sarrebourg",
    "lat": 48.735135,
    "lon": 7.054364,
    "dist": 7217.1,
    "primary": "",
    "url": "https://fr.wikipedia.org/wiki/Synagogue%20de%20Sarrebourg"
  },
  {
    "pageid": 13597850,
    "ns": 0,
    "title": "Bataille de Sarrebourg (1914)",
    "lat": 48.73528,
    "lon": 7.05444,
    "dist": 7231.3,
    "primary": "",
    "url": "https://fr.wikipedia.org/wiki/Bataille%20de%20Sarrebourg%20%281914%29"
  },
  {
    "pageid": 36620,
    "ns": 0,
    "title": "Sarrebourg",
    "lat": 48.7352777778,
    "lon": 7.05444444444,
    "dist": 7231.4,
    "primary": "",
    "url": "https://fr.wikipedia.org/wiki/Sarrebourg"
  },
  {
    "pageid": 3870018,
    "ns": 0,
    "title": "Mus\u00e9e du pays de Sarrebourg",
    "lat": 48.734975,
    "lon": 7.055253,
    "dist": 7258.6,
    "primary": "",
    "url": "https://fr.wikipedia.org/wiki/Mus%C3%A9e%20du%20pays%20de%20Sarrebourg"
  },
  {
    "pageid": 309365,
    "ns": 0,
    "title": "Haut-Clocher",
    "lat": 48.7594,
    "lon": 7.0014,
    "dist": 7297,
    "primary": "",
    "url": "https://fr.wikipedia.org/wiki/Haut-Clocher"
  },
  {
    "pageid": 12827351,
    "ns": 0,
    "title": "Biblioth\u00e8que municipale de Sarrebourg",
    "lat": 48.734984,
    "lon": 7.056124,
    "dist": 7310.5,
    "primary": "",
    "url": "https://fr.wikipedia.org/wiki/Biblioth%C3%A8que%20municipale%20de%20Sarrebourg"
  },
  {
    "pageid": 1847640,
    "ns": 0,
    "title": "Gare de Sarrebourg",
    "lat": 48.738569,
    "lon": 7.052047,
    "dist": 7323.2,
    "primary": "",
    "url": "https://fr.wikipedia.org/wiki/Gare%20de%20Sarrebourg"
  },
  {
    "pageid": 12827307,
    "ns": 0,
    "title": "Fortifications de Sarrebourg",
    "lat": 48.734738,
    "lon": 7.05864,
    "dist": 7444,
    "primary": "",
    "url": "https://fr.wikipedia.org/wiki/Fortifications%20de%20Sarrebourg"
  },
  {
    "pageid": 8819370,
    "ns": 0,
    "title": "N\u00e9cropole nationale de Sarrebourg - Buhl",
    "lat": 48.7317,
    "lon": 7.06296,
    "dist": 7520.9,
    "primary": "",
    "url": "https://fr.wikipedia.org/wiki/N%C3%A9cropole%20nationale%20de%20Sarrebourg%20-%20Buhl"
  },
  {
    "pageid": 14092588,
    "ns": 0,
    "title": "Villa gallo-romaine de Saint-Ulrich",
    "lat": 48.75802,
    "lon": 7.01719,
    "dist": 7534.9,
    "primary": "",
    "url": "https://fr.wikipedia.org/wiki/Villa%20gallo-romaine%20de%20Saint-Ulrich"
  },
  {
    "pageid": 309691,
    "ns": 0,
    "title": "Schneckenbusch",
    "lat": 48.7047,
    "lon": 7.0783,
    "dist": 7575.4,
    "primary": "",
    "url": "https://fr.wikipedia.org/wiki/Schneckenbusch"
  },
  {
    "pageid": 10177931,
    "ns": 0,
    "title": "Villa Weiherstein",
    "lat": 48.7389,
    "lon": 7.05722,
    "dist": 7639.5,
    "primary": "",
    "url": "https://fr.wikipedia.org/wiki/Villa%20Weiherstein"
  },
  {
    "pageid": 6030720,
    "ns": 0,
    "title": "Hoff (Moselle)",
    "lat": 48.746231,
    "lon": 7.054432,
    "dist": 8025.4,
    "primary": "",
    "url": "https://fr.wikipedia.org/wiki/Hoff%20%28Moselle%29"
  },
  {
    "pageid": 6505691,
    "ns": 0,
    "title": "A\u00e9rodrome de Sarrebourg - Buhl",
    "lat": 48.71833,
    "lon": 7.08,
    "dist": 8031.4,
    "primary": "",
    "url": "https://fr.wikipedia.org/wiki/A%C3%A9rodrome%20de%20Sarrebourg%20-%20Buhl"
  },
  {
    "pageid": 14441308,
    "ns": 0,
    "title": "Viaduc du Landbach",
    "lat": 48.767825931819,
    "lon": 7.0168887388446,
    "dist": 8536.8,
    "primary": "",
    "url": "https://fr.wikipedia.org/wiki/Viaduc%20du%20Landbach"
  },
  {
    "pageid": 309359,
    "ns": 0,
    "title": "Hartzviller",
    "lat": 48.6703,
    "lon": 7.0872,
    "dist": 8652.9,
    "primary": "",
    "url": "https://fr.wikipedia.org/wiki/Hartzviller"
  },
  {
    "pageid": 55955,
    "ns": 0,
    "title": "Buhl-Lorraine",
    "lat": 48.7253,
    "lon": 7.0853,
    "dist": 8662.6,
    "primary": "",
    "url": "https://fr.wikipedia.org/wiki/Buhl-Lorraine"
  },
  {
    "pageid": 309174,
    "ns": 0,
    "title": "Brouderdorff",
    "lat": 48.6994,
    "lon": 7.1019,
    "dist": 9253.2,
    "primary": "",
    "url": "https://fr.wikipedia.org/wiki/Brouderdorff"
  },
  {
    "pageid": 309248,
    "ns": 0,
    "title": "Dolving",
    "lat": 48.7761,
    "lon": 7.0211,
    "dist": 9506.6,
    "primary": "",
    "url": "https://fr.wikipedia.org/wiki/Dolving"
  },
  {
    "pageid": 5914082,
    "ns": 0,
    "title": "Fa\u00efencerie de Niderviller",
    "lat": 48.712,
    "lon": 7.10636,
    "dist": 9736.2,
    "primary": "",
    "url": "https://fr.wikipedia.org/wiki/Fa%C3%AFencerie%20de%20Niderviller"
  },
  {
    "pageid": 309563,
    "ns": 0,
    "title": "Niderviller",
    "lat": 48.7136,
    "lon": 7.1086,
    "dist": 9931.3,
    "primary": "",
    "url": "https://fr.wikipedia.org/wiki/Niderviller"
  },
  {
    "pageid": 309318,
    "ns": 0,
    "title": "Gosselming",
    "lat": 48.7925,
    "lon": 7.0033,
    "dist": 2129.5,
    "primary": "",
    "url": "https://fr.wikipedia.org/wiki/Gosselming"
  },
  {
    "pageid": 13610212,
    "ns": 0,
    "title": "Synagogue de Gosselming",
    "lat": 48.791181,
    "lon": 7.004597,
    "dist": 2176.3,
    "primary": "",
    "url": "https://fr.wikipedia.org/wiki/Synagogue%20de%20Gosselming"
  },
  {
    "pageid": 309672,
    "ns": 0,
    "title": "Saint-Jean-de-Bassel",
    "lat": 48.8044,
    "lon": 6.9914,
    "dist": 2333.7,
    "primary": "",
    "url": "https://fr.wikipedia.org/wiki/Saint-Jean-de-Bassel"
  },
  {
    "pageid": 11812716,
    "ns": 0,
    "title": "Membre de Saint-Jean-de-Bassel",
    "lat": 48.804523,
    "lon": 6.995124,
    "dist": 2488.9,
    "primary": "",
    "url": "https://fr.wikipedia.org/wiki/Membre%20de%20Saint-Jean-de-Bassel"
  },
  {
    "pageid": 1879104,
    "ns": 0,
    "title": "Gare de Berthelming",
    "lat": 48.809829,
    "lon": 7.008795,
    "dist": 3575.5,
    "primary": "",
    "url": "https://fr.wikipedia.org/wiki/Gare%20de%20Berthelming"
  },
  {
    "pageid": 309138,
    "ns": 0,
    "title": "Bettborn (Moselle)",
    "lat": 48.8017,
    "lon": 7.0222,
    "dist": 3809.9,
    "primary": "",
    "url": "https://fr.wikipedia.org/wiki/Bettborn%20%28Moselle%29"
  },
  {
    "pageid": 309135,
    "ns": 0,
    "title": "Berthelming",
    "lat": 48.8169,
    "lon": 7.0064,
    "dist": 4092.1,
    "primary": "",
    "url": "https://fr.wikipedia.org/wiki/Berthelming"
  },
  {
    "pageid": 309577,
    "ns": 0,
    "title": "Oberstinzel",
    "lat": 48.793263,
    "lon": 7.035005,
    "dist": 4401.5,
    "primary": "",
    "url": "https://fr.wikipedia.org/wiki/Oberstinzel"
  },
  {
    "pageid": 8221080,
    "ns": 0,
    "title": "Gare d'Oberstinzel",
    "lat": 48.786561,
    "lon": 7.041571,
    "dist": 4809.5,
    "primary": "",
    "url": "https://fr.wikipedia.org/wiki/Gare%20d%27Oberstinzel"
  },
  {
    "pageid": 716850,
    "ns": 0,
    "title": "Canton de F\u00e9n\u00e9trange",
    "lat": 48.81052852,
    "lon": 7.04517314,
    "dist": 5755.9,
    "primary": "",
    "url": "https://fr.wikipedia.org/wiki/Canton%20de%20F%C3%A9n%C3%A9trange"
  },
  {
    "pageid": 309650,
    "ns": 0,
    "title": "Romelfing",
    "lat": 48.8308,
    "lon": 7.0258,
    "dist": 6172.1,
    "primary": "",
    "url": "https://fr.wikipedia.org/wiki/Romelfing"
  },
  {
    "pageid": 309686,
    "ns": 0,
    "title": "Sarraltroff",
    "lat": 48.7747,
    "lon": 7.0636,
    "dist": 6546.7,
    "primary": "",
    "url": "https://fr.wikipedia.org/wiki/Sarraltroff"
  },
  {
    "pageid": 8113048,
    "ns": 0,
    "title": "Gare de Sarraltroff",
    "lat": 48.770121,
    "lon": 7.065349,
    "dist": 6787.6,
    "primary": "",
    "url": "https://fr.wikipedia.org/wiki/Gare%20de%20Sarraltroff"
  },
  {
    "pageid": 309372,
    "ns": 0,
    "title": "Hellering-l\u00e8s-F\u00e9n\u00e9trange",
    "lat": 48.8102777778,
    "lon": 7.06444444444,
    "dist": 7020.7,
    "primary": "",
    "url": "https://fr.wikipedia.org/wiki/Hellering-l%C3%A8s-F%C3%A9n%C3%A9trange"
  },
  {
    "pageid": 14441449,
    "ns": 0,
    "title": "Viaduc de la Sarre",
    "lat": 48.764917126026,
    "lon": 7.06655186267,
    "dist": 7044.4,
    "primary": "",
    "url": "https://fr.wikipedia.org/wiki/Viaduc%20de%20la%20Sarre"
  },
  {
    "pageid": 10159864,
    "ns": 0,
    "title": "Ch\u00e2teau de F\u00e9n\u00e9trange",
    "lat": 48.84611,
    "lon": 7.02111,
    "dist": 7452.5,
    "primary": "",
    "url": "https://fr.wikipedia.org/wiki/Ch%C3%A2teau%20de%20F%C3%A9n%C3%A9trange"
  },
  {
    "pageid": 309277,
    "ns": 0,
    "title": "F\u00e9n\u00e9trange",
    "lat": 48.847,
    "lon": 7.0197,
    "dist": 7496.5,
    "primary": "",
    "url": "https://fr.wikipedia.org/wiki/F%C3%A9n%C3%A9trange"
  },
  {
    "pageid": 5461898,
    "ns": 0,
    "title": "\u00c9glise Saint-R\u00e9my de F\u00e9n\u00e9trange",
    "lat": 48.8471,
    "lon": 7.02156,
    "dist": 7565.7,
    "primary": "",
    "url": "https://fr.wikipedia.org/wiki/%C3%89glise%20Saint-R%C3%A9my%20de%20F%C3%A9n%C3%A9trange"
  },
  {
    "pageid": 13609826,
    "ns": 0,
    "title": "Synagogue de F\u00e9n\u00e9trange",
    "lat": 48.847803,
    "lon": 7.02037,
    "dist": 7598.2,
    "primary": "",
    "url": "https://fr.wikipedia.org/wiki/Synagogue%20de%20F%C3%A9n%C3%A9trange"
  },
  {
    "pageid": 297266,
    "ns": 0,
    "title": "Kirrberg",
    "lat": 48.8231,
    "lon": 7.065,
    "dist": 7715.1,
    "primary": "",
    "url": "https://fr.wikipedia.org/wiki/Kirrberg"
  },
  {
    "pageid": 297197,
    "ns": 0,
    "title": "G\u0153rlingen",
    "lat": 48.79666667,
    "lon": 7.08305556,
    "dist": 7935.9,
    "primary": "",
    "url": "https://fr.wikipedia.org/wiki/G%C5%93rlingen"
  },
  {
    "pageid": 309388,
    "ns": 0,
    "title": "Hilbesheim",
    "lat": 48.7775,
    "lon": 7.0969,
    "dist": 8914.4,
    "primary": "",
    "url": "https://fr.wikipedia.org/wiki/Hilbesheim"
  },
  {
    "pageid": 309564,
    "ns": 0,
    "title": "Niederstinzel",
    "lat": 48.8633,
    "lon": 7.0322,
    "dist": 9526.2,
    "primary": "",
    "url": "https://fr.wikipedia.org/wiki/Niederstinzel"
  },
  {
    "pageid": 297070,
    "ns": 0,
    "title": "Baerendorf",
    "lat": 48.839167,
    "lon": 7.085833,
    "dist": 9982.3,
    "primary": "",
    "url": "https://fr.wikipedia.org/wiki/Baerendorf"
  },
  {
    "pageid": 7343905,
    "ns": 0,
    "title": "Ch\u00e2teau de Bonnefontaine (Bas-Rhin)",
    "lat": 48.907675,
    "lon": 6.993624,
    "dist": 3737.2,
    "primary": "",
    "url": "https://fr.wikipedia.org/wiki/Ch%C3%A2teau%20de%20Bonnefontaine%20%28Bas-Rhin%29"
  },
  {
    "pageid": 12827161,
    "ns": 0,
    "title": "Ch\u00e2teau de Geroldseck",
    "lat": 48.8661,
    "lon": 7.0438,
    "dist": 5088.2,
    "primary": "",
    "url": "https://fr.wikipedia.org/wiki/Ch%C3%A2teau%20de%20Geroldseck"
  },
  {
    "pageid": 297133,
    "ns": 0,
    "title": "Diedendorf",
    "lat": 48.88027778,
    "lon": 7.04583333,
    "dist": 5132.7,
    "primary": "",
    "url": "https://fr.wikipedia.org/wiki/Diedendorf"
  },
  {
    "pageid": 476068,
    "ns": 0,
    "title": "Ch\u00e2teau de Diedendorf",
    "lat": 48.878,
    "lon": 7.0468,
    "dist": 5187,
    "primary": "",
    "url": "https://fr.wikipedia.org/wiki/Ch%C3%A2teau%20de%20Diedendorf"
  },
  {
    "pageid": 297063,
    "ns": 0,
    "title": "Altwiller",
    "lat": 48.930833,
    "lon": 6.980833,
    "dist": 6091.7,
    "primary": "",
    "url": "https://fr.wikipedia.org/wiki/Altwiller"
  },
  {
    "pageid": 7345085,
    "ns": 0,
    "title": "Pont sur l'Isch (Wolfskirchen)",
    "lat": 48.8715,
    "lon": 7.0651,
    "dist": 6542,
    "primary": "",
    "url": "https://fr.wikipedia.org/wiki/Pont%20sur%20l%27Isch%20%28Wolfskirchen%29"
  },
  {
    "pageid": 297538,
    "ns": 0,
    "title": "Wolfskirchen",
    "lat": 48.8806,
    "lon": 7.075,
    "dist": 7261.9,
    "primary": "",
    "url": "https://fr.wikipedia.org/wiki/Wolfskirchen"
  },
  {
    "pageid": 752913,
    "ns": 0,
    "title": "Bischtroff-sur-Sarre",
    "lat": 48.901365,
    "lon": 7.071971,
    "dist": 7561.3,
    "primary": "",
    "url": "https://fr.wikipedia.org/wiki/Bischtroff-sur-Sarre"
  },
  {
    "pageid": 297214,
    "ns": 0,
    "title": "Harskirchen",
    "lat": 48.9328,
    "lon": 7.04,
    "dist": 7849.8,
    "primary": "",
    "url": "https://fr.wikipedia.org/wiki/Harskirchen"
  },
  {
    "pageid": 7344161,
    "ns": 0,
    "title": "\u00c9glise protestante de Harskirchen",
    "lat": 48.933905,
    "lon": 7.038932,
    "dist": 7903,
    "primary": "",
    "url": "https://fr.wikipedia.org/wiki/%C3%89glise%20protestante%20de%20Harskirchen"
  },
  {
    "pageid": 309607,
    "ns": 0,
    "title": "Postroff",
    "lat": 48.8514,
    "lon": 7.08,
    "dist": 8094.8,
    "primary": "",
    "url": "https://fr.wikipedia.org/wiki/Postroff"
  },
  {
    "pageid": 297094,
    "ns": 0,
    "title": "Bissert",
    "lat": 48.942778,
    "lon": 7.024444,
    "dist": 8214.1,
    "primary": "",
    "url": "https://fr.wikipedia.org/wiki/Bissert"
  },
  {
    "pageid": 752914,
    "ns": 0,
    "title": "Zollingen",
    "lat": 48.910599,
    "lon": 7.075684,
    "dist": 8237.9,
    "primary": "",
    "url": "https://fr.wikipedia.org/wiki/Zollingen"
  },
  {
    "pageid": 309432,
    "ns": 0,
    "title": "Kirviller",
    "lat": 48.9533,
    "lon": 6.9844,
    "dist": 8601.7,
    "primary": "",
    "url": "https://fr.wikipedia.org/wiki/Kirviller"
  },
  {
    "pageid": 1212064,
    "ns": 0,
    "title": "Wiler (Bas-Rhin)",
    "lat": 48.937429,
    "lon": 7.047777,
    "dist": 8603.1,
    "primary": "",
    "url": "https://fr.wikipedia.org/wiki/Wiler%20%28Bas-Rhin%29"
  },
  {
    "pageid": 297229,
    "ns": 0,
    "title": "Hinsingen",
    "lat": 48.9533,
    "lon": 6.9925,
    "dist": 8664.4,
    "primary": "",
    "url": "https://fr.wikipedia.org/wiki/Hinsingen"
  },
  {
    "pageid": 11573478,
    "ns": 0,
    "title": "Moulin de Willer",
    "lat": 48.937361,
    "lon": 7.051667,
    "dist": 8773.7,
    "primary": "",
    "url": "https://fr.wikipedia.org/wiki/Moulin%20de%20Willer"
  },
  {
    "pageid": 7344917,
    "ns": 0,
    "title": "Presbyt\u00e8re catholique de Sarrewerden",
    "lat": 48.922732,
    "lon": 7.082436,
    "dist": 9351.5,
    "primary": "",
    "url": "https://fr.wikipedia.org/wiki/Presbyt%C3%A8re%20catholique%20de%20Sarrewerden"
  },
  {
    "pageid": 7344912,
    "ns": 0,
    "title": "Maison au 10, rue des Tanneurs \u00e0 Sarrewerden",
    "lat": 48.922468,
    "lon": 7.082844,
    "dist": 9360.1,
    "primary": "",
    "url": "https://fr.wikipedia.org/wiki/Maison%20au%2010%2C%20rue%20des%20Tanneurs%20%C3%A0%20Sarrewerden"
  },
  {
    "pageid": 7344904,
    "ns": 0,
    "title": "\u00c9glise Saint-Blaise de Sarrewerden",
    "lat": 48.922954,
    "lon": 7.082479,
    "dist": 9367.8,
    "primary": "",
    "url": "https://fr.wikipedia.org/wiki/%C3%89glise%20Saint-Blaise%20de%20Sarrewerden"
  },
  {
    "pageid": 7344914,
    "ns": 0,
    "title": "Maison au 22, rue des Tanneurs \u00e0 Sarrewerden",
    "lat": 48.921801,
    "lon": 7.083772,
    "dist": 9376.5,
    "primary": "",
    "url": "https://fr.wikipedia.org/wiki/Maison%20au%2022%2C%20rue%20des%20Tanneurs%20%C3%A0%20Sarrewerden"
  },
  {
    "pageid": 7344906,
    "ns": 0,
    "title": "Maison au 7, rue des Tanneurs \u00e0 Sarrewerden",
    "lat": 48.922573,
    "lon": 7.083124,
    "dist": 9383.6,
    "primary": "",
    "url": "https://fr.wikipedia.org/wiki/Maison%20au%207%2C%20rue%20des%20Tanneurs%20%C3%A0%20Sarrewerden"
  },
  {
    "pageid": 297427,
    "ns": 0,
    "title": "Sarrewerden",
    "lat": 48.9236,
    "lon": 7.0844,
    "dist": 9524.4,
    "primary": "",
    "url": "https://fr.wikipedia.org/wiki/Sarrewerden"
  },
  {
    "pageid": 297448,
    "ns": 0,
    "title": "Schopperten",
    "lat": 48.9475,
    "lon": 7.0514,
    "dist": 9663.1,
    "primary": "",
    "url": "https://fr.wikipedia.org/wiki/Schopperten"
  },
  {
    "pageid": 3767082,
    "ns": 0,
    "title": "Gare de Schopperten",
    "lat": 48.945791,
    "lon": 7.055722,
    "dist": 9694.4,
    "primary": "",
    "url": "https://fr.wikipedia.org/wiki/Gare%20de%20Schopperten"
  },
  {
    "pageid": 309393,
    "ns": 0,
    "title": "Holving",
    "lat": 49.011111,
    "lon": 6.9645,
    "dist": 5059.3,
    "primary": "",
    "url": "https://fr.wikipedia.org/wiki/Holving"
  },
  {
    "pageid": 297259,
    "ns": 0,
    "title": "Keskastel",
    "lat": 48.9719,
    "lon": 7.0447,
    "dist": 5059.4,
    "primary": "",
    "url": "https://fr.wikipedia.org/wiki/Keskastel"
  },
  {
    "pageid": 3767074,
    "ns": 0,
    "title": "Gare de Keskastel",
    "lat": 48.965458,
    "lon": 7.048994,
    "dist": 5334.5,
    "primary": "",
    "url": "https://fr.wikipedia.org/wiki/Gare%20de%20Keskastel"
  },
  {
    "pageid": 309685,
    "ns": 0,
    "title": "Sarralbe",
    "lat": 48.999707,
    "lon": 7.029879,
    "dist": 5418,
    "primary": "",
    "url": "https://fr.wikipedia.org/wiki/Sarralbe"
  },
  {
    "pageid": 1887692,
    "ns": 0,
    "title": "Gare de Sarralbe",
    "lat": 49.00087,
    "lon": 7.03668,
    "dist": 5872.6,
    "primary": "",
    "url": "https://fr.wikipedia.org/wiki/Gare%20de%20Sarralbe"
  },
  {
    "pageid": 1878702,
    "ns": 0,
    "title": "Albe (rivi\u00e8re)",
    "lat": 49.00388889,
    "lon": 7.03277778,
    "dist": 5894.1,
    "primary": "",
    "url": "https://fr.wikipedia.org/wiki/Albe%20%28rivi%C3%A8re%29"
  },
  {
    "pageid": 309638,
    "ns": 0,
    "title": "Richeling",
    "lat": 49.03,
    "lon": 6.9614,
    "dist": 7169.3,
    "primary": "",
    "url": "https://fr.wikipedia.org/wiki/Richeling"
  },
  {
    "pageid": 6784083,
    "ns": 0,
    "title": "A\u00e9rodrome de Sarre-Union",
    "lat": 48.95083,
    "lon": 7.07639,
    "dist": 7532.2,
    "primary": "",
    "url": "https://fr.wikipedia.org/wiki/A%C3%A9rodrome%20de%20Sarre-Union"
  },
  {
    "pageid": 7316551,
    "ns": 0,
    "title": "H\u00f4tel de ville de Neusaarwerden",
    "lat": 48.9372,
    "lon": 7.07755,
    "dist": 8092.4,
    "primary": "",
    "url": "https://fr.wikipedia.org/wiki/H%C3%B4tel%20de%20ville%20de%20Neusaarwerden"
  },
  {
    "pageid": 7316643,
    "ns": 0,
    "title": "Maison au 27, rue de Verdun \u00e0 Sarre-Union",
    "lat": 48.937538,
    "lon": 7.077958,
    "dist": 8104.8,
    "primary": "",
    "url": "https://fr.wikipedia.org/wiki/Maison%20au%2027%2C%20rue%20de%20Verdun%20%C3%A0%20Sarre-Union"
  },
  {
    "pageid": 309815,
    "ns": 0,
    "title": "Willerwald",
    "lat": 49.0278,
    "lon": 7.0358,
    "dist": 8120.6,
    "primary": "",
    "url": "https://fr.wikipedia.org/wiki/Willerwald"
  },
  {
    "pageid": 7316637,
    "ns": 0,
    "title": "Maison au 25, rue de Verdun \u00e0 Sarre-Union",
    "lat": 48.937619,
    "lon": 7.078376,
    "dist": 8129.4,
    "primary": "",
    "url": "https://fr.wikipedia.org/wiki/Maison%20au%2025%2C%20rue%20de%20Verdun%20%C3%A0%20Sarre-Union"
  },
  {
    "pageid": 9915366,
    "ns": 0,
    "title": "Neuf-Sarrewerden",
    "lat": 48.9372,
    "lon": 7.0782,
    "dist": 8136,
    "primary": "",
    "url": "https://fr.wikipedia.org/wiki/Neuf-Sarrewerden"
  },
  {
    "pageid": 7316626,
    "ns": 0,
    "title": "Maison au 16, rue de Verdun \u00e0 Sarre-Union",
    "lat": 48.937548,
    "lon": 7.079149,
    "dist": 8184.4,
    "primary": "",
    "url": "https://fr.wikipedia.org/wiki/Maison%20au%2016%2C%20rue%20de%20Verdun%20%C3%A0%20Sarre-Union"
  },
  {
    "pageid": 309628,
    "ns": 0,
    "title": "R\u00e9mering-l\u00e8s-Puttelange",
    "lat": 49.0361,
    "lon": 6.9403,
    "dist": 8192,
    "primary": "",
    "url": "https://fr.wikipedia.org/wiki/R%C3%A9mering-l%C3%A8s-Puttelange"
  },
  {
    "pageid": 7316621,
    "ns": 0,
    "title": "Maison au 14, rue de Verdun \u00e0 Sarre-Union",
    "lat": 48.937604,
    "lon": 7.079449,
    "dist": 8202.2,
    "primary": "",
    "url": "https://fr.wikipedia.org/wiki/Maison%20au%2014%2C%20rue%20de%20Verdun%20%C3%A0%20Sarre-Union"
  },
  {
    "pageid": 7316649,
    "ns": 0,
    "title": "Temple r\u00e9form\u00e9 de Sarre-Union",
    "lat": 48.937146,
    "lon": 7.079503,
    "dist": 8225.7,
    "primary": "",
    "url": "https://fr.wikipedia.org/wiki/Temple%20r%C3%A9form%C3%A9%20de%20Sarre-Union"
  },
  {
    "pageid": 3767091,
    "ns": 0,
    "title": "Gare de Sarre-Union",
    "lat": 48.935908,
    "lon": 7.084957,
    "dist": 8646.2,
    "primary": "",
    "url": "https://fr.wikipedia.org/wiki/Gare%20de%20Sarre-Union"
  },
  {
    "pageid": 7316574,
    "ns": 0,
    "title": "Maison au 22, rue Fr\u00e9d\u00e9ric-Fluher \u00e0 Sarre-Union",
    "lat": 48.941044,
    "lon": 7.088048,
    "dist": 8652.7,
    "primary": "",
    "url": "https://fr.wikipedia.org/wiki/Maison%20au%2022%2C%20rue%20Fr%C3%A9d%C3%A9ric-Fluher%20%C3%A0%20Sarre-Union"
  },
  {
    "pageid": 7316562,
    "ns": 0,
    "title": "Maison au 6, rue du Couvent \u00e0 Sarre-Union",
    "lat": 48.941329,
    "lon": 7.088349,
    "dist": 8663.3,
    "primary": "",
    "url": "https://fr.wikipedia.org/wiki/Maison%20au%206%2C%20rue%20du%20Couvent%20%C3%A0%20Sarre-Union"
  },
  {
    "pageid": 7316589,
    "ns": 0,
    "title": "Maison au 9, Grand-Rue \u00e0 Sarre-Union",
    "lat": 48.939708,
    "lon": 7.087973,
    "dist": 8696.9,
    "primary": "",
    "url": "https://fr.wikipedia.org/wiki/Maison%20au%209%2C%20Grand-Rue%20%C3%A0%20Sarre-Union"
  },
  {
    "pageid": 309327,
    "ns": 0,
    "title": "Grundviller",
    "lat": 49.0444,
    "lon": 6.9717,
    "dist": 8697.2,
    "primary": "",
    "url": "https://fr.wikipedia.org/wiki/Grundviller"
  },
  {
    "pageid": 7316611,
    "ns": 0,
    "title": "Maison au 1, rue du Presbyt\u00e8re \u00e0 Sarre-Union",
    "lat": 48.939363,
    "lon": 7.087855,
    "dist": 8701.9,
    "primary": "",
    "url": "https://fr.wikipedia.org/wiki/Maison%20au%201%2C%20rue%20du%20Presbyt%C3%A8re%20%C3%A0%20Sarre-Union"
  },
  {
    "pageid": 7316579,
    "ns": 0,
    "title": "Maison au 11, Grand-Rue \u00e0 Sarre-Union",
    "lat": 48.93974,
    "lon": 7.08807,
    "dist": 8702.3,
    "primary": "",
    "url": "https://fr.wikipedia.org/wiki/Maison%20au%2011%2C%20Grand-Rue%20%C3%A0%20Sarre-Union"
  },
  {
    "pageid": 7316595,
    "ns": 0,
    "title": "Maison au 25, Grand-Rue \u00e0 Sarre-Union",
    "lat": 48.94006,
    "lon": 7.088746,
    "dist": 8736.9,
    "primary": "",
    "url": "https://fr.wikipedia.org/wiki/Maison%20au%2025%2C%20Grand-Rue%20%C3%A0%20Sarre-Union"
  },
  {
    "pageid": 297426,
    "ns": 0,
    "title": "Sarre-Union",
    "lat": 48.94138889,
    "lon": 7.08944444,
    "dist": 8737,
    "primary": "",
    "url": "https://fr.wikipedia.org/wiki/Sarre-Union"
  },
  {
    "pageid": 345973,
    "ns": 0,
    "title": "Alsace bossue",
    "lat": 48.94138889,
    "lon": 7.08944444,
    "dist": 8737,
    "primary": "",
    "url": "https://fr.wikipedia.org/wiki/Alsace%20bossue"
  },
  {
    "pageid": 1212066,
    "ns": 0,
    "title": "Bouquenom",
    "lat": 48.94065,
    "lon": 7.08912,
    "dist": 8741,
    "primary": "",
    "url": "https://fr.wikipedia.org/wiki/Bouquenom"
  },
  {
    "pageid": 7316569,
    "ns": 0,
    "title": "Maison au 29, rue du Couvent \u00e0 Sarre-Union",
    "lat": 48.941463,
    "lon": 7.089776,
    "dist": 8757.4,
    "primary": "",
    "url": "https://fr.wikipedia.org/wiki/Maison%20au%2029%2C%20rue%20du%20Couvent%20%C3%A0%20Sarre-Union"
  },
  {
    "pageid": 7316557,
    "ns": 0,
    "title": "H\u00f4tel de ville de Sarre-Union",
    "lat": 48.9406,
    "lon": 7.08953,
    "dist": 8771.1,
    "primary": "",
    "url": "https://fr.wikipedia.org/wiki/H%C3%B4tel%20de%20ville%20de%20Sarre-Union"
  },
  {
    "pageid": 7316598,
    "ns": 0,
    "title": "Maison au 37, Grand-Rue \u00e0 Sarre-Union",
    "lat": 48.940332,
    "lon": 7.089518,
    "dist": 8780,
    "primary": "",
    "url": "https://fr.wikipedia.org/wiki/Maison%20au%2037%2C%20Grand-Rue%20%C3%A0%20Sarre-Union"
  },
  {
    "pageid": 7316607,
    "ns": 0,
    "title": "Maison au 1, rue des Potiers \u00e0 Sarre-Union",
    "lat": 48.941276,
    "lon": 7.090677,
    "dist": 8826.4,
    "primary": "",
    "url": "https://fr.wikipedia.org/wiki/Maison%20au%201%2C%20rue%20des%20Potiers%20%C3%A0%20Sarre-Union"
  },
  {
    "pageid": 7316614,
    "ns": 0,
    "title": "Maison au 1, rue des Tourneurs \u00e0 Sarre-Union",
    "lat": 48.940631,
    "lon": 7.0905,
    "dist": 8837,
    "primary": "",
    "url": "https://fr.wikipedia.org/wiki/Maison%20au%201%2C%20rue%20des%20Tourneurs%20%C3%A0%20Sarre-Union"
  },
  {
    "pageid": 101688,
    "ns": 0,
    "title": "Canton de Sarre-Union",
    "lat": 48.95455546,
    "lon": 7.10069433,
    "dist": 9201.1,
    "primary": "",
    "url": "https://fr.wikipedia.org/wiki/Canton%20de%20Sarre-Union"
  },
  {
    "pageid": 3767021,
    "ns": 0,
    "title": "Gare de Herbitzheim",
    "lat": 49.013803,
    "lon": 7.079936,
    "dist": 9250.4,
    "primary": "",
    "url": "https://fr.wikipedia.org/wiki/Gare%20de%20Herbitzheim"
  },
  {
    "pageid": 297222,
    "ns": 0,
    "title": "Herbitzheim",
    "lat": 49.01555556,
    "lon": 7.085,
    "dist": 9665,
    "primary": "",
    "url": "https://fr.wikipedia.org/wiki/Herbitzheim"
  },
  {
    "pageid": 3700436,
    "ns": 0,
    "title": "Heckenransbach",
    "lat": 49.058291,
    "lon": 6.980557,
    "dist": 402,
    "primary": "",
    "url": "https://fr.wikipedia.org/wiki/Heckenransbach"
  },
  {
    "pageid": 309266,
    "ns": 0,
    "title": "Ernestviller",
    "lat": 49.0680555556,
    "lon": 6.965,
    "dist": 1528.3,
    "primary": "",
    "url": "https://fr.wikipedia.org/wiki/Ernestviller"
  },
  {
    "pageid": 309328,
    "ns": 0,
    "title": "Guebenhouse",
    "lat": 49.0756,
    "lon": 6.9433,
    "dist": 3200.7,
    "primary": "",
    "url": "https://fr.wikipedia.org/wiki/Guebenhouse"
  },
  {
    "pageid": 309612,
    "ns": 0,
    "title": "Puttelange-aux-Lacs",
    "lat": 49.0530555556,
    "lon": 6.93166666,
    "dist": 3245.8,
    "primary": "",
    "url": "https://fr.wikipedia.org/wiki/Puttelange-aux-Lacs"
  },
  {
    "pageid": 309823,
    "ns": 0,
    "title": "Woustviller",
    "lat": 49.0766666667,
    "lon": 7.01027777778,
    "dist": 3373.3,
    "primary": "",
    "url": "https://fr.wikipedia.org/wiki/Woustviller"
  },
  {
    "pageid": 309345,
    "ns": 0,
    "title": "Hambach (Moselle)",
    "lat": 49.0613888889,
    "lon": 7.03722222222,
    "dist": 4501.5,
    "primary": "",
    "url": "https://fr.wikipedia.org/wiki/Hambach%20%28Moselle%29"
  },
  {
    "pageid": 10462968,
    "ns": 0,
    "title": "Roth (Moselle)",
    "lat": 49.079678,
    "lon": 7.036216,
    "dist": 5102.3,
    "primary": "",
    "url": "https://fr.wikipedia.org/wiki/Roth%20%28Moselle%29"
  },
  {
    "pageid": 309483,
    "ns": 0,
    "title": "Loupershouse",
    "lat": 49.0817,
    "lon": 6.9142,
    "dist": 5308.8,
    "primary": "",
    "url": "https://fr.wikipedia.org/wiki/Loupershouse"
  },
  {
    "pageid": 9350602,
    "ns": 0,
    "title": "Diefenbach-l\u00e8s-Puttelange",
    "lat": 49.049833,
    "lon": 6.903655,
    "dist": 5316,
    "primary": "",
    "url": "https://fr.wikipedia.org/wiki/Diefenbach-l%C3%A8s-Puttelange"
  },
  {
    "pageid": 1208386,
    "ns": 0,
    "title": "Ellviller",
    "lat": 49.075859,
    "lon": 6.909164,
    "dist": 5327,
    "primary": "",
    "url": "https://fr.wikipedia.org/wiki/Ellviller"
  },
  {
    "pageid": 12938796,
    "ns": 0,
    "title": "Gare de Diebling",
    "lat": 49.102422,
    "lon": 6.946401,
    "dist": 5558.7,
    "primary": "",
    "url": "https://fr.wikipedia.org/wiki/Gare%20de%20Diebling"
  },
  {
    "pageid": 1885610,
    "ns": 0,
    "title": "Gare de Hundling",
    "lat": 49.106597,
    "lon": 6.977538,
    "dist": 5591.3,
    "primary": "",
    "url": "https://fr.wikipedia.org/wiki/Gare%20de%20Hundling"
  },
  {
    "pageid": 309406,
    "ns": 0,
    "title": "Hundling",
    "lat": 49.1078,
    "lon": 6.9822,
    "dist": 5742.1,
    "primary": "",
    "url": "https://fr.wikipedia.org/wiki/Hundling"
  },
  {
    "pageid": 309524,
    "ns": 0,
    "title": "Metzing",
    "lat": 49.1078,
    "lon": 6.96,
    "dist": 5840.3,
    "primary": "",
    "url": "https://fr.wikipedia.org/wiki/Metzing"
  },
  {
    "pageid": 309416,
    "ns": 0,
    "title": "Ippling",
    "lat": 49.1069,
    "lon": 7.005,
    "dist": 6009.2,
    "primary": "",
    "url": "https://fr.wikipedia.org/wiki/Ippling"
  },
  {
    "pageid": 1885454,
    "ns": 0,
    "title": "Gare de Farschviller",
    "lat": 49.087911,
    "lon": 6.908058,
    "dist": 6064.6,
    "primary": "",
    "url": "https://fr.wikipedia.org/wiki/Gare%20de%20Farschviller"
  },
  {
    "pageid": 5088777,
    "ns": 0,
    "title": "For\u00eat de Puttelange",
    "lat": 49.052605,
    "lon": 6.888548,
    "dist": 6380.9,
    "primary": "",
    "url": "https://fr.wikipedia.org/wiki/For%C3%AAt%20de%20Puttelange"
  },
  {
    "pageid": 309242,
    "ns": 0,
    "title": "Diebling",
    "lat": 49.1094,
    "lon": 6.9411,
    "dist": 6423.8,
    "primary": "",
    "url": "https://fr.wikipedia.org/wiki/Diebling"
  },
  {
    "pageid": 3716602,
    "ns": 0,
    "title": "For\u00eat du Buchholz",
    "lat": 49.090121,
    "lon": 7.052515,
    "dist": 6726.5,
    "primary": "",
    "url": "https://fr.wikipedia.org/wiki/For%C3%AAt%20du%20Buchholz"
  },
  {
    "pageid": 309403,
    "ns": 0,
    "title": "Hoste (Moselle)",
    "lat": 49.0697,
    "lon": 6.8847,
    "dist": 6811.1,
    "primary": "",
    "url": "https://fr.wikipedia.org/wiki/Hoste%20%28Moselle%29"
  },
  {
    "pageid": 309572,
    "ns": 0,
    "title": "Nousseviller-Saint-Nabor",
    "lat": 49.12,
    "lon": 6.9714,
    "dist": 7088.1,
    "primary": "",
    "url": "https://fr.wikipedia.org/wiki/Nousseviller-Saint-Nabor"
  },
  {
    "pageid": 309559,
    "ns": 0,
    "title": "Neufgrange",
    "lat": 49.0775,
    "lon": 7.0686,
    "dist": 7150.2,
    "primary": "",
    "url": "https://fr.wikipedia.org/wiki/Neufgrange"
  },
  {
    "pageid": 309275,
    "ns": 0,
    "title": "Farschviller",
    "lat": 49.0938888889,
    "lon": 6.895,
    "dist": 7224.7,
    "primary": "",
    "url": "https://fr.wikipedia.org/wiki/Farschviller"
  },
  {
    "pageid": 1156754,
    "ns": 0,
    "title": "Welferding",
    "lat": 49.111098,
    "lon": 7.041163,
    "dist": 7724.4,
    "primary": "",
    "url": "https://fr.wikipedia.org/wiki/Welferding"
  },
  {
    "pageid": 716838,
    "ns": 0,
    "title": "Canton de Sarreguemines-Campagne",
    "lat": 49.09906429,
    "lon": 7.06265314,
    "dist": 7904.9,
    "primary": "",
    "url": "https://fr.wikipedia.org/wiki/Canton%20de%20Sarreguemines-Campagne"
  },
  {
    "pageid": 1747655,
    "ns": 0,
    "title": "Cadenbronn",
    "lat": 49.129492,
    "lon": 6.96496,
    "dist": 8175,
    "primary": "",
    "url": "https://fr.wikipedia.org/wiki/Cadenbronn"
  },
  {
    "pageid": 309733,
    "ns": 0,
    "title": "Tenteling",
    "lat": 49.1261,
    "lon": 6.9394,
    "dist": 8202,
    "primary": "",
    "url": "https://fr.wikipedia.org/wiki/Tenteling"
  },
  {
    "pageid": 7875604,
    "ns": 0,
    "title": "Rilchingen-Hanweiler",
    "lat": 49.115278,
    "lon": 7.051111,
    "dist": 8541.1,
    "primary": "",
    "url": "https://fr.wikipedia.org/wiki/Rilchingen-Hanweiler"
  },
  {
    "pageid": 3180557,
    "ns": 0,
    "title": "Aire urbaine de Sarreguemines (partie fran\u00e7aise)",
    "lat": 49.10323,
    "lon": 7.069493,
    "dist": 8581.6,
    "primary": "",
    "url": "https://fr.wikipedia.org/wiki/Aire%20urbaine%20de%20Sarreguemines%20%28partie%20fran%C3%A7aise%29"
  },
  {
    "pageid": 169588,
    "ns": 0,
    "title": "Siltzheim",
    "lat": 49.0631,
    "lon": 7.0942,
    "dist": 8650.5,
    "primary": "",
    "url": "https://fr.wikipedia.org/wiki/Siltzheim"
  },
  {
    "pageid": 9222200,
    "ns": 0,
    "title": "Ebring",
    "lat": 49.123009,
    "lon": 6.914006,
    "dist": 8678.4,
    "primary": "",
    "url": "https://fr.wikipedia.org/wiki/Ebring"
  },
  {
    "pageid": 1887816,
    "ns": 0,
    "title": "Gare de Sarreguemines",
    "lat": 49.107073,
    "lon": 7.068359,
    "dist": 8784.1,
    "primary": "",
    "url": "https://fr.wikipedia.org/wiki/Gare%20de%20Sarreguemines"
  },
  {
    "pageid": 12163433,
    "ns": 0,
    "title": "Gare de Hanweiler-Bad Rilchingen",
    "lat": 49.118758,
    "lon": 7.050074,
    "dist": 8794.9,
    "primary": "",
    "url": "https://fr.wikipedia.org/wiki/Gare%20de%20Hanweiler-Bad%20Rilchingen"
  },
  {
    "pageid": 16526332,
    "ns": 0,
    "title": "\u00c9glise Saint-Nicolas de Sarreguemines",
    "lat": 49.1108,
    "lon": 7.0658,
    "dist": 8918.1,
    "primary": "",
    "url": "https://fr.wikipedia.org/wiki/%C3%89glise%20Saint-Nicolas%20de%20Sarreguemines"
  },
  {
    "pageid": 716876,
    "ns": 0,
    "title": "Canton de Sarreguemines",
    "lat": 49.110555555,
    "lon": 7.067222222,
    "dist": 8976.1,
    "primary": "",
    "url": "https://fr.wikipedia.org/wiki/Canton%20de%20Sarreguemines"
  },
  {
    "pageid": 13128911,
    "ns": 0,
    "title": "Mus\u00e9e de la Fa\u00efence (Sarreguemines)",
    "lat": 49.109052,
    "lon": 7.07072,
    "dist": 9057.4,
    "primary": "",
    "url": "https://fr.wikipedia.org/wiki/Mus%C3%A9e%20de%20la%20Fa%C3%AFence%20%28Sarreguemines%29"
  },
  {
    "pageid": 36534,
    "ns": 0,
    "title": "Sarreguemines",
    "lat": 49.1111111111,
    "lon": 7.06805555556,
    "dist": 9062.5,
    "primary": "",
    "url": "https://fr.wikipedia.org/wiki/Sarreguemines"
  },
  {
    "pageid": 6749189,
    "ns": 0,
    "title": "Unit\u00e9 urbaine de Sarreguemines (partie fran\u00e7aise)",
    "lat": 49.1111111111,
    "lon": 7.06805555556,
    "dist": 9062.5,
    "primary": "",
    "url": "https://fr.wikipedia.org/wiki/Unit%C3%A9%20urbaine%20de%20Sarreguemines%20%28partie%20fran%C3%A7aise%29"
  },
  {
    "pageid": 1887590,
    "ns": 0,
    "title": "Gare de R\u00e9melfing",
    "lat": 49.091507,
    "lon": 7.091495,
    "dist": 9282.8,
    "primary": "",
    "url": "https://fr.wikipedia.org/wiki/Gare%20de%20R%C3%A9melfing"
  },
  {
    "pageid": 10160402,
    "ns": 0,
    "title": "Casino de la Fa\u00efencerie",
    "lat": 49.110737,
    "lon": 7.072995,
    "dist": 9304.9,
    "primary": "",
    "url": "https://fr.wikipedia.org/wiki/Casino%20de%20la%20Fa%C3%AFencerie"
  },
  {
    "pageid": 309656,
    "ns": 0,
    "title": "Rouhling",
    "lat": 49.1381,
    "lon": 7.0033,
    "dist": 9308.9,
    "primary": "",
    "url": "https://fr.wikipedia.org/wiki/Rouhling"
  },
  {
    "pageid": 309183,
    "ns": 0,
    "title": "Cappel (Moselle)",
    "lat": 49.0731,
    "lon": 6.8506,
    "dist": 9319.5,
    "primary": "",
    "url": "https://fr.wikipedia.org/wiki/Cappel%20%28Moselle%29"
  },
  {
    "pageid": 309624,
    "ns": 0,
    "title": "R\u00e9melfing",
    "lat": 49.0919,
    "lon": 7.0928,
    "dist": 9387.4,
    "primary": "",
    "url": "https://fr.wikipedia.org/wiki/R%C3%A9melfing"
  },
  {
    "pageid": 109327,
    "ns": 0,
    "title": "Arrondissement de Sarreguemines",
    "lat": 49.11256,
    "lon": 7.07223,
    "dist": 9396.2,
    "primary": "",
    "url": "https://fr.wikipedia.org/wiki/Arrondissement%20de%20Sarreguemines"
  },