[
  {
    "pageid": 5117570,
    "ns": 0,
    "title": "Mont Soleil",
    "lat": 47.1658,
    "lon": 6.9894,
    "dist": 1416,
    "primary": "",
    "url": "https://fr.wikipedia.org/wiki/Mont%20Soleil"
  },
  {
    "pageid": 4076678,
    "ns": 0,
    "title": "Montagne du Droit",
    "lat": 47.16583,
    "lon": 6.98944,
    "dist": 1419.4,
    "primary": "",
    "url": "https://fr.wikipedia.org/wiki/Montagne%20du%20Droit"
  },
  {
    "pageid": 17091885,
    "ns": 0,
    "title": "Mus\u00e9e de Saint-Imier",
    "lat": 47.152,
    "lon": 6.99681,
    "dist": 2398.5,
    "primary": "",
    "url": "https://fr.wikipedia.org/wiki/Mus%C3%A9e%20de%20Saint-Imier"
  },
  {
    "pageid": 15985217,
    "ns": 0,
    "title": "M\u00e9moires d'Ici",
    "lat": 47.152111111111,
    "lon": 6.9990694444444,
    "dist": 2533.9,
    "primary": "",
    "url": "https://fr.wikipedia.org/wiki/M%C3%A9moires%20d%27Ici"
  },
  {
    "pageid": 198798,
    "ns": 0,
    "title": "Saint-Imier",
    "lat": 47.152786,
    "lon": 7.000018,
    "dist": 2556.1,
    "primary": "",
    "url": "https://fr.wikipedia.org/wiki/Saint-Imier"
  },
  {
    "pageid": 15337341,
    "ns": 0,
    "title": "Rue des Dix-Petites-Anarchistes",
    "lat": 47.153883,
    "lon": 7.003836,
    "dist": 2755.8,
    "primary": "",
    "url": "https://fr.wikipedia.org/wiki/Rue%20des%20Dix-Petites-Anarchistes"
  },
  {
    "pageid": 198799,
    "ns": 0,
    "title": "Sonvilier",
    "lat": 47.139453,
    "lon": 6.965286,
    "dist": 2798.7,
    "primary": "",
    "url": "https://fr.wikipedia.org/wiki/Sonvilier"
  },
  {
    "pageid": 336647,
    "ns": 0,
    "title": "Ch\u00e2teau d'Ergu\u00ebl",
    "lat": 47.13581,
    "lon": 6.97787,
    "dist": 3217.4,
    "primary": "",
    "url": "https://fr.wikipedia.org/wiki/Ch%C3%A2teau%20d%27Ergu%C3%ABl"
  },
  {
    "pageid": 188576,
    "ns": 0,
    "title": "Le Peuchapatte",
    "lat": 47.197227,
    "lon": 6.965289,
    "dist": 3680.2,
    "primary": "",
    "url": "https://fr.wikipedia.org/wiki/Le%20Peuchapatte"
  },
  {
    "pageid": 198802,
    "ns": 0,
    "title": "Villeret (Berne)",
    "lat": 47.159722,
    "lon": 7.019452,
    "dist": 3714.5,
    "primary": "",
    "url": "https://fr.wikipedia.org/wiki/Villeret%20%28Berne%29"
  },
  {
    "pageid": 4946571,
    "ns": 0,
    "title": "Col des Pontins",
    "lat": 47.13184,
    "lon": 6.99716,
    "dist": 4127.6,
    "primary": "",
    "url": "https://fr.wikipedia.org/wiki/Col%20des%20Pontins"
  },
  {
    "pageid": 198793,
    "ns": 0,
    "title": "Renan (Berne)",
    "lat": 47.127785,
    "lon": 6.929184,
    "dist": 5140.6,
    "primary": "",
    "url": "https://fr.wikipedia.org/wiki/Renan%20%28Berne%29"
  },
  {
    "pageid": 1645121,
    "ns": 0,
    "title": "Vallon de Saint-Imier",
    "lat": 47.165,
    "lon": 7.03917,
    "dist": 5169.9,
    "primary": "",
    "url": "https://fr.wikipedia.org/wiki/Vallon%20de%20Saint-Imier"
  },
  {
    "pageid": 188577,
    "ns": 0,
    "title": "Les Bois",
    "lat": 47.1768,
    "lon": 6.9049,
    "dist": 5170.1,
    "primary": "",
    "url": "https://fr.wikipedia.org/wiki/Les%20Bois"
  },
  {
    "pageid": 11847701,
    "ns": 0,
    "title": "Montres Valgine",
    "lat": 47.211472,
    "lon": 7.001167,
    "dist": 5721.2,
    "primary": "",
    "url": "https://fr.wikipedia.org/wiki/Montres%20Valgine"
  },
  {
    "pageid": 11839599,
    "ns": 0,
    "title": "Richard Mille",
    "lat": 47.211472,
    "lon": 7.001167,
    "dist": 5721.2,
    "primary": "",
    "url": "https://fr.wikipedia.org/wiki/Richard%20Mille"
  },
  {
    "pageid": 188579,
    "ns": 0,
    "title": "Les Breuleux",
    "lat": 47.212501,
    "lon": 7.004175,
    "dist": 5919.4,
    "primary": "",
    "url": "https://fr.wikipedia.org/wiki/Les%20Breuleux"
  },
  {
    "pageid": 198805,
    "ns": 0,
    "title": "La Ferri\u00e8re (Berne)",
    "lat": 47.144449,
    "lon": 6.893073,
    "dist": 6279.4,
    "primary": "",
    "url": "https://fr.wikipedia.org/wiki/La%20Ferri%C3%A8re%20%28Berne%29"
  },
  {
    "pageid": 198803,
    "ns": 0,
    "title": "Cormoret",
    "lat": 47.175004,
    "lon": 7.055568,
    "dist": 6517.2,
    "primary": "",
    "url": "https://fr.wikipedia.org/wiki/Cormoret"
  },
  {
    "pageid": 2746645,
    "ns": 0,
    "title": "Col du Chasseral",
    "lat": 47.1195,
    "lon": 7.0321,
    "dist": 6809,
    "primary": "",
    "url": "https://fr.wikipedia.org/wiki/Col%20du%20Chasseral"
  },
  {
    "pageid": 338998,
    "ns": 0,
    "title": "Chant du Gros",
    "lat": 47.225005,
    "lon": 6.956963,
    "dist": 6825.9,
    "primary": "",
    "url": "https://fr.wikipedia.org/wiki/Chant%20du%20Gros"
  },
  {
    "pageid": 188572,
    "ns": 0,
    "title": "Le Noirmont",
    "lat": 47.225005,
    "lon": 6.956963,
    "dist": 6825.9,
    "primary": "",
    "url": "https://fr.wikipedia.org/wiki/Le%20Noirmont"
  },
  {
    "pageid": 360816,
    "ns": 0,
    "title": "Camille Bloch (entreprise)",
    "lat": 47.1754,
    "lon": 7.06461,
    "dist": 7197.7,
    "primary": "",
    "url": "https://fr.wikipedia.org/wiki/Camille%20Bloch%20%28entreprise%29"
  },
  {
    "pageid": 184608,
    "ns": 0,
    "title": "Le P\u00e2quier (Neuch\u00e2tel)",
    "lat": 47.1,
    "lon": 6.987514,
    "dist": 7265.5,
    "primary": "",
    "url": "https://fr.wikipedia.org/wiki/Le%20P%C3%A2quier%20%28Neuch%C3%A2tel%29"
  },
  {
    "pageid": 14308838,
    "ns": 0,
    "title": "Barrage de La Goule",
    "lat": 47.223911,
    "lon": 6.925338,
    "dist": 7461.3,
    "primary": "",
    "url": "https://fr.wikipedia.org/wiki/Barrage%20de%20La%20Goule"
  },
  {
    "pageid": 107820,
    "ns": 0,
    "title": "Chasseral",
    "lat": 47.13307,
    "lon": 7.05938,
    "dist": 7547.9,
    "primary": "",
    "url": "https://fr.wikipedia.org/wiki/Chasseral"
  },
  {
    "pageid": 198786,
    "ns": 0,
    "title": "Courtelary",
    "lat": 47.179169,
    "lon": 7.07224,
    "dist": 7843.7,
    "primary": "",
    "url": "https://fr.wikipedia.org/wiki/Courtelary"
  },
  {
    "pageid": 188561,
    "ns": 0,
    "title": "La Chaux-des-Breuleux",
    "lat": 47.223611,
    "lon": 7.029184,
    "dist": 7930.9,
    "primary": "",
    "url": "https://fr.wikipedia.org/wiki/La%20Chaux-des-Breuleux"
  },
  {
    "pageid": 198790,
    "ns": 0,
    "title": "Mont-Tramelan",
    "lat": 47.211114,
    "lon": 7.054175,
    "dist": 8170.1,
    "primary": "",
    "url": "https://fr.wikipedia.org/wiki/Mont-Tramelan"
  },
  {
    "pageid": 11384709,
    "ns": 0,
    "title": "Lac de Biaufond",
    "lat": 47.16556,
    "lon": 6.85583,
    "dist": 8692.3,
    "primary": "",
    "url": "https://fr.wikipedia.org/wiki/Lac%20de%20Biaufond"
  },
  {
    "pageid": 340958,
    "ns": 0,
    "title": "Charmauvillers",
    "lat": 47.2397222222,
    "lon": 6.91916666667,
    "dist": 9244.9,
    "primary": "",
    "url": "https://fr.wikipedia.org/wiki/Charmauvillers"
  },
  {
    "pageid": 13187597,
    "ns": 0,
    "title": "Grotte du Bichon",
    "lat": 47.15,
    "lon": 6.85,
    "dist": 9271.5,
    "primary": "",
    "url": "https://fr.wikipedia.org/wiki/Grotte%20du%20Bichon"
  },
  {
    "pageid": 1796150,
    "ns": 0,
    "title": "Muriaux",
    "lat": 47.247781,
    "lon": 6.979187,
    "dist": 9299.7,
    "primary": "",
    "url": "https://fr.wikipedia.org/wiki/Muriaux"
  },
  {
    "pageid": 16201995,
    "ns": 0,
    "title": "A\u00e9rodrome de Courtelary",
    "lat": 47.18333,
    "lon": 7.09083,
    "dist": 9315.7,
    "primary": "",
    "url": "https://fr.wikipedia.org/wiki/A%C3%A9rodrome%20de%20Courtelary"
  },
  {
    "pageid": 11502976,
    "ns": 0,
    "title": "Barrage du Refrain",
    "lat": 47.173671,
    "lon": 6.845897,
    "dist": 9498.3,
    "primary": "",
    "url": "https://fr.wikipedia.org/wiki/Barrage%20du%20Refrain"
  },
  {
    "pageid": 8039503,
    "ns": 0,
    "title": "Parc naturel r\u00e9gional du Doubs",
    "lat": 47.2378,
    "lon": 7.0354,
    "dist": 9515.4,
    "primary": "",
    "url": "https://fr.wikipedia.org/wiki/Parc%20naturel%20r%C3%A9gional%20du%20Doubs"
  },
  {
    "pageid": 183539,
    "ns": 0,
    "title": "District des Franches-Montagnes",
    "lat": 47.25,
    "lon": 6.9833,
    "dist": 9571.5,
    "primary": "",
    "url": "https://fr.wikipedia.org/wiki/District%20des%20Franches-Montagnes"
  },
  {
    "pageid": 1404005,
    "ns": 0,
    "title": "Villiers (Neuch\u00e2tel)",
    "lat": 47.07639,
    "lon": 6.972228,
    "dist": 9780.4,
    "primary": "",
    "url": "https://fr.wikipedia.org/wiki/Villiers%20%28Neuch%C3%A2tel%29"
  },
  {
    "pageid": 2464968,
    "ns": 0,
    "title": "\u00c9tang de la Gru\u00e8re",
    "lat": 47.23806,
    "lon": 7.04694,
    "dist": 10014.3,
    "primary": "",
    "url": "https://fr.wikipedia.org/wiki/%C3%89tang%20de%20la%20Gru%C3%A8re"
  },
  {
    "pageid": 198811,
    "ns": 0,
    "title": "Nods (Berne)",
    "lat": 47.115281,
    "lon": 7.081953,
    "dist": 10022.5,
    "primary": "",
    "url": "https://fr.wikipedia.org/wiki/Nods%20%28Berne%29"
  },
  {
    "pageid": 12419185,
    "ns": 0,
    "title": "Mont d'Amin",
    "lat": 47.08278,
    "lon": 6.90667,
    "dist": 10285.4,
    "primary": "",
    "url": "https://fr.wikipedia.org/wiki/Mont%20d%27Amin"
  },
  {
    "pageid": 793580,
    "ns": 0,
    "title": "Roichenoz",
    "lat": 47.2475,
    "lon": 6.89472,
    "dist": 10887,
    "primary": "",
    "url": "https://fr.wikipedia.org/wiki/Roichenoz"
  },
  {
    "pageid": 340966,
    "ns": 0,
    "title": "Damprichard",
    "lat": 47.2453,
    "lon": 6.8822,
    "dist": 11217.4,
    "primary": "",
    "url": "https://fr.wikipedia.org/wiki/Damprichard"
  },
  {
    "pageid": 11353945,
    "ns": 0,
    "title": "Cr\u00e9matoire de La Chaux-de-Fonds",
    "lat": 47.113597,
    "lon": 6.840906,
    "dist": 11329.4,
    "primary": "",
    "url": "https://fr.wikipedia.org/wiki/Cr%C3%A9matoire%20de%20La%20Chaux-de-Fonds"
  },
  {
    "pageid": 184211,
    "ns": 0,
    "title": "Ligni\u00e8res (Neuch\u00e2tel)",
    "lat": 47.083337,
    "lon": 7.066679,
    "dist": 11565.5,
    "primary": "",
    "url": "https://fr.wikipedia.org/wiki/Ligni%C3%A8res%20%28Neuch%C3%A2tel%29"
  },
  {
    "pageid": 196617,
    "ns": 0,
    "title": "Orvin",
    "lat": 47.160832,
    "lon": 7.213895,
    "dist": 1335.9,
    "primary": "",
    "url": "https://fr.wikipedia.org/wiki/Orvin"
  },
  {
    "pageid": 187437,
    "ns": 0,
    "title": "Evilard",
    "lat": 47.151389,
    "lon": 7.238894,
    "dist": 1565.1,
    "primary": "",
    "url": "https://fr.wikipedia.org/wiki/Evilard"
  },
  {
    "pageid": 2903969,
    "ns": 0,
    "title": "Rondch\u00e2tel",
    "lat": 47.17597,
    "lon": 7.2478,
    "dist": 1823.3,
    "primary": "",
    "url": "https://fr.wikipedia.org/wiki/Rondch%C3%A2tel"
  },
  {
    "pageid": 419570,
    "ns": 0,
    "title": "Frinvillier",
    "lat": 47.169222,
    "lon": 7.255194,
    "dist": 1922.8,
    "primary": "",
    "url": "https://fr.wikipedia.org/wiki/Frinvillier"
  },
  {
    "pageid": 11226959,
    "ns": 0,
    "title": "Centre hospitalier Bienne",
    "lat": 47.1465,
    "lon": 7.245,
    "dist": 2256.1,
    "primary": "",
    "url": "https://fr.wikipedia.org/wiki/Centre%20hospitalier%20Bienne"
  },
  {
    "pageid": 3991024,
    "ns": 0,
    "title": "Funiculaire Bienne-Evilard",
    "lat": 47.145481,
    "lon": 7.242318,
    "dist": 2271.1,
    "primary": "",
    "url": "https://fr.wikipedia.org/wiki/Funiculaire%20Bienne-Evilard"
  },
  {
    "pageid": 4055193,
    "ns": 0,
    "title": "Gorges du Taubenloch",
    "lat": 47.157778,
    "lon": 7.264722,
    "dist": 2667,
    "primary": "",
    "url": "https://fr.wikipedia.org/wiki/Gorges%20du%20Taubenloch"
  },
  {
    "pageid": 2014014,
    "ns": 0,
    "title": "Macolin",
    "lat": 47.14139,
    "lon": 7.216402,
    "dist": 2774.5,
    "primary": "",
    "url": "https://fr.wikipedia.org/wiki/Macolin"
  },
  {
    "pageid": 16085531,
    "ns": 0,
    "title": "\u00c9glise du Pasquart",
    "lat": 47.140289,
    "lon": 7.241987,
    "dist": 2805.3,
    "primary": "",
    "url": "https://fr.wikipedia.org/wiki/%C3%89glise%20du%20Pasquart"
  },
  {
    "pageid": 4730848,
    "ns": 0,
    "title": "Centre Pasquart",
    "lat": 47.1387,
    "lon": 7.23967,
    "dist": 2929.2,
    "primary": "",
    "url": "https://fr.wikipedia.org/wiki/Centre%20Pasquart"
  },
  {
    "pageid": 6736884,
    "ns": 0,
    "title": "NMB Nouveau Mus\u00e9e Bienne",
    "lat": 47.139064,
    "lon": 7.242137,
    "dist": 2938.8,
    "primary": "",
    "url": "https://fr.wikipedia.org/wiki/NMB%20Nouveau%20Mus%C3%A9e%20Bienne"
  },
  {
    "pageid": 3991052,
    "ns": 0,
    "title": "Funiculaire Bienne-Macolin",
    "lat": 47.137366,
    "lon": 7.224541,
    "dist": 3036.6,
    "primary": "",
    "url": "https://fr.wikipedia.org/wiki/Funiculaire%20Bienne-Macolin"
  },
  {
    "pageid": 196621,
    "ns": 0,
    "title": "La Heutte",
    "lat": 47.191666,
    "lon": 7.227792,
    "dist": 3046.8,
    "primary": "",
    "url": "https://fr.wikipedia.org/wiki/La%20Heutte"
  },
  {
    "pageid": 625906,
    "ns": 0,
    "title": "Office f\u00e9d\u00e9ral du sport",
    "lat": 47.138103,
    "lon": 7.213542,
    "dist": 3196,
    "primary": "",
    "url": "https://fr.wikipedia.org/wiki/Office%20f%C3%A9d%C3%A9ral%20du%20sport"
  },
  {
    "pageid": 11419638,
    "ns": 0,
    "title": "Haute \u00e9cole f\u00e9d\u00e9rale de sport de Macolin",
    "lat": 47.138098,
    "lon": 7.213376,
    "dist": 3201.7,
    "primary": "",
    "url": "https://fr.wikipedia.org/wiki/Haute%20%C3%A9cole%20f%C3%A9d%C3%A9rale%20de%20sport%20de%20Macolin"
  },
  {
    "pageid": 748313,
    "ns": 0,
    "title": "Omega (entreprise)",
    "lat": 47.1435,
    "lon": 7.26011,
    "dist": 3207.1,
    "primary": "",
    "url": "https://fr.wikipedia.org/wiki/Omega%20%28entreprise%29"
  },
  {
    "pageid": 4252427,
    "ns": 0,
    "title": "Bienne",
    "lat": 47.135,
    "lon": 7.24,
    "dist": 3336.1,
    "primary": "",
    "url": "https://fr.wikipedia.org/wiki/Bienne"
  },
  {
    "pageid": 4353127,
    "ns": 0,
    "title": "Arrondissement administratif de Bienne",
    "lat": 47.133,
    "lon": 7.233,
    "dist": 3489.1,
    "primary": "",
    "url": "https://fr.wikipedia.org/wiki/Arrondissement%20administratif%20de%20Bienne"
  },
  {
    "pageid": 15084862,
    "ns": 0,
    "title": "Palais des congr\u00e8s (Bienne)",
    "lat": 47.134872222222,
    "lon": 7.2479055555556,
    "dist": 3523.2,
    "primary": "",
    "url": "https://fr.wikipedia.org/wiki/Palais%20des%20congr%C3%A8s%20%28Bienne%29"
  },
  {
    "pageid": 4730792,
    "ns": 0,
    "title": "Mus\u00e9e de la Machine M\u00fcller",
    "lat": 47.132988,
    "lon": 7.238997,
    "dist": 3541.2,
    "primary": "",
    "url": "https://fr.wikipedia.org/wiki/Mus%C3%A9e%20de%20la%20Machine%20M%C3%BCller"
  },
  {
    "pageid": 2080961,
    "ns": 0,
    "title": "Stade de Glace",
    "lat": 47.152944,
    "lon": 7.275139,
    "dist": 3584.5,
    "primary": "",
    "url": "https://fr.wikipedia.org/wiki/Stade%20de%20Glace"
  },
  {
    "pageid": 11568026,
    "ns": 0,
    "title": "Vogelinsel",
    "lat": 47.132058,
    "lon": 7.233274,
    "dist": 3594.7,
    "primary": "",
    "url": "https://fr.wikipedia.org/wiki/Vogelinsel"
  },
  {
    "pageid": 7564979,
    "ns": 0,
    "title": "Gare de Bienne",
    "lat": 47.132984,
    "lon": 7.242983,
    "dist": 3606.7,
    "primary": "",
    "url": "https://fr.wikipedia.org/wiki/Gare%20de%20Bienne"
  },
  {
    "pageid": 196619,
    "ns": 0,
    "title": "P\u00e9ry",
    "lat": 47.194169,
    "lon": 7.250004,
    "dist": 3620.5,
    "primary": "",
    "url": "https://fr.wikipedia.org/wiki/P%C3%A9ry"
  },
  {
    "pageid": 8460767,
    "ns": 0,
    "title": "P\u00e9ry-La Heutte",
    "lat": 47.194169,
    "lon": 7.250004,
    "dist": 3620.5,
    "primary": "",
    "url": "https://fr.wikipedia.org/wiki/P%C3%A9ry-La%20Heutte"
  },
  {
    "pageid": 10765435,
    "ns": 0,
    "title": "Tournoi de tennis de Suisse (WTA 2017)",
    "lat": 47.158873,
    "lon": 7.278112,
    "dist": 3628.9,
    "primary": "",
    "url": "https://fr.wikipedia.org/wiki/Tournoi%20de%20tennis%20de%20Suisse%20%28WTA%202017%29"
  },
  {
    "pageid": 1952232,
    "ns": 0,
    "title": "Office f\u00e9d\u00e9ral de la communication",
    "lat": 47.13269,
    "lon": 7.24793,
    "dist": 3750.6,
    "primary": "",
    "url": "https://fr.wikipedia.org/wiki/Office%20f%C3%A9d%C3%A9ral%20de%20la%20communication"
  },
  {
    "pageid": 5573811,
    "ns": 0,
    "title": "Biel-Vingelz\u2013Hafen",
    "lat": 47.130965,
    "lon": 7.221953,
    "dist": 3771.1,
    "primary": "",
    "url": "https://fr.wikipedia.org/wiki/Biel-Vingelz%E2%80%93Hafen"
  },
  {
    "pageid": 9408115,
    "ns": 0,
    "title": "Tissot Arena",
    "lat": 47.154722222222,
    "lon": 7.2794444444444,
    "dist": 3830.8,
    "primary": "",
    "url": "https://fr.wikipedia.org/wiki/Tissot%20Arena"
  },
  {
    "pageid": 11111785,
    "ns": 0,
    "title": "Madretsch",
    "lat": 47.1319982,
    "lon": 7.2565327,
    "dist": 4089.4,
    "primary": "",
    "url": "https://fr.wikipedia.org/wiki/Madretsch"
  },
  {
    "pageid": 4712776,
    "ns": 0,
    "title": "Mus\u00e9e du ch\u00e2teau de Nidau",
    "lat": 47.127778,
    "lon": 7.24,
    "dist": 4124.9,
    "primary": "",
    "url": "https://fr.wikipedia.org/wiki/Mus%C3%A9e%20du%20ch%C3%A2teau%20de%20Nidau"
  },
  {
    "pageid": 8004358,
    "ns": 0,
    "title": "Ch\u00e2teau de Nidau",
    "lat": 47.1277,
    "lon": 7.24,
    "dist": 4133.5,
    "primary": "",
    "url": "https://fr.wikipedia.org/wiki/Ch%C3%A2teau%20de%20Nidau"
  },
  {
    "pageid": 419550,
    "ns": 0,
    "title": "Les Pr\u00e9s-d'Orvin",
    "lat": 47.1541,
    "lon": 7.177,
    "dist": 4223.7,
    "primary": "",
    "url": "https://fr.wikipedia.org/wiki/Les%20Pr%C3%A9s-d%27Orvin"
  },
  {
    "pageid": 187431,
    "ns": 0,
    "title": "Nidau",
    "lat": 47.125558,
    "lon": 7.240282,
    "dist": 4371.9,
    "primary": "",
    "url": "https://fr.wikipedia.org/wiki/Nidau"
  },
  {
    "pageid": 2983708,
    "ns": 0,
    "title": "Canal de Nidau-B\u00fcren",
    "lat": 47.12277,
    "lon": 7.23424,
    "dist": 4629.9,
    "primary": "",
    "url": "https://fr.wikipedia.org/wiki/Canal%20de%20Nidau-B%C3%BCren"
  },
  {
    "pageid": 198791,
    "ns": 0,
    "title": "Plagne (Berne)",
    "lat": 47.188332,
    "lon": 7.286955,
    "dist": 5013.5,
    "primary": "",
    "url": "https://fr.wikipedia.org/wiki/Plagne%20%28Berne%29"
  },
  {
    "pageid": 201621,
    "ns": 0,
    "title": "Ipsach",
    "lat": 47.116668,
    "lon": 7.233345,
    "dist": 5304.6,
    "primary": "",
    "url": "https://fr.wikipedia.org/wiki/Ipsach"
  },
  {
    "pageid": 97325,
    "ns": 0,
    "title": "Sonceboz-Sombeval",
    "lat": 47.2,
    "lon": 7.18333333333,
    "dist": 5346.6,
    "primary": "",
    "url": "https://fr.wikipedia.org/wiki/Sonceboz-Sombeval"
  },
  {
    "pageid": 354191,
    "ns": 0,
    "title": "Jura bernois",
    "lat": 47.2,
    "lon": 7.1833,
    "dist": 5348.3,
    "primary": "",
    "url": "https://fr.wikipedia.org/wiki/Jura%20bernois"
  },
  {
    "pageid": 4353054,
    "ns": 0,
    "title": "Arrondissement administratif du Jura bernois",
    "lat": 47.2,
    "lon": 7.183,
    "dist": 5363.6,
    "primary": "",
    "url": "https://fr.wikipedia.org/wiki/Arrondissement%20administratif%20du%20Jura%20bernois"
  },
  {
    "pageid": 2990666,
    "ns": 0,
    "title": "Barrage de r\u00e9gulation de Port",
    "lat": 47.11889,
    "lon": 7.25694,
    "dist": 5427.2,
    "primary": "",
    "url": "https://fr.wikipedia.org/wiki/Barrage%20de%20r%C3%A9gulation%20de%20Port"
  },
  {
    "pageid": 188084,
    "ns": 0,
    "title": "Port (Berne)",
    "lat": 47.116669,
    "lon": 7.250013,
    "dist": 5496.7,
    "primary": "",
    "url": "https://fr.wikipedia.org/wiki/Port%20%28Berne%29"
  },
  {
    "pageid": 188089,
    "ns": 0,
    "title": "Br\u00fcgg",
    "lat": 47.126389,
    "lon": 7.281667,
    "dist": 5710.8,
    "primary": "",
    "url": "https://fr.wikipedia.org/wiki/Br%C3%BCgg"
  },
  {
    "pageid": 336980,
    "ns": 0,
    "title": "Col de Pierre Pertuis",
    "lat": 47.2097,
    "lon": 7.1937,
    "dist": 5770.2,
    "primary": "",
    "url": "https://fr.wikipedia.org/wiki/Col%20de%20Pierre%20Pertuis"
  },
  {
    "pageid": 7647548,
    "ns": 0,
    "title": "Sauge (Berne)",
    "lat": 47.187224,
    "lon": 7.300007,
    "dist": 5817.4,
    "primary": "",
    "url": "https://fr.wikipedia.org/wiki/Sauge%20%28Berne%29"
  },
  {
    "pageid": 196623,
    "ns": 0,
    "title": "Vauffelin",
    "lat": 47.187694,
    "lon": 7.300111,
    "dist": 5847.5,
    "primary": "",
    "url": "https://fr.wikipedia.org/wiki/Vauffelin"
  },
  {
    "pageid": 236465,
    "ns": 0,
    "title": "Birse",
    "lat": 47.2136,
    "lon": 7.19522,
    "dist": 6101.3,
    "primary": "",
    "url": "https://fr.wikipedia.org/wiki/Birse"
  },
  {
    "pageid": 188116,
    "ns": 0,
    "title": "Orpond",
    "lat": 47.138893,
    "lon": 7.306394,
    "dist": 6378.9,
    "primary": "",
    "url": "https://fr.wikipedia.org/wiki/Orpond"
  },
  {
    "pageid": 188099,
    "ns": 0,
    "title": "Aegerten",
    "lat": 47.116665,
    "lon": 7.283337,
    "dist": 6625.7,
    "primary": "",
    "url": "https://fr.wikipedia.org/wiki/Aegerten"
  },
  {
    "pageid": 167419,
    "ns": 0,
    "title": "Tavannes (Berne)",
    "lat": 47.220838,
    "lon": 7.201404,
    "dist": 6663,
    "primary": "",
    "url": "https://fr.wikipedia.org/wiki/Tavannes%20%28Berne%29"
  },
  {
    "pageid": 354961,
    "ns": 0,
    "title": "Montagne de Montoz",
    "lat": 47.21727,
    "lon": 7.27419,
    "dist": 6737.2,
    "primary": "",
    "url": "https://fr.wikipedia.org/wiki/Montagne%20de%20Montoz"
  },
  {
    "pageid": 5881456,
    "ns": 0,
    "title": "Monast\u00e8re de Gottstatt",
    "lat": 47.138554,
    "lon": 7.31318,
    "dist": 6858.3,
    "primary": "",
    "url": "https://fr.wikipedia.org/wiki/Monast%C3%A8re%20de%20Gottstatt"
  },
  {
    "pageid": 188120,
    "ns": 0,
    "title": "Schwadernau",
    "lat": 47.12889,
    "lon": 7.305285,
    "dist": 6875.8,
    "primary": "",
    "url": "https://fr.wikipedia.org/wiki/Schwadernau"
  },
  {
    "pageid": 5573808,
    "ns": 0,
    "title": "Sutz-Lattrigen\u2013R\u00fctte",
    "lat": 47.103492,
    "lon": 7.212113,
    "dist": 6912.2,
    "primary": "",
    "url": "https://fr.wikipedia.org/wiki/Sutz-Lattrigen%E2%80%93R%C3%BCtte"
  },
  {
    "pageid": 4875389,
    "ns": 0,
    "title": "Chnebelburg",
    "lat": 47.1068806,
    "lon": 7.2667667,
    "dist": 6944.7,
    "primary": "",
    "url": "https://fr.wikipedia.org/wiki/Chnebelburg"
  },
  {
    "pageid": 4110560,
    "ns": 0,
    "title": "Jensberg",
    "lat": 47.1069,
    "lon": 7.26709,
    "dist": 6952.4,
    "primary": "",
    "url": "https://fr.wikipedia.org/wiki/Jensberg"
  },
  {
    "pageid": 11411926,
    "ns": 0,
    "title": "Mont Sujet",
    "lat": 47.13765,
    "lon": 7.14498,
    "dist": 7135.8,
    "primary": "",
    "url": "https://fr.wikipedia.org/wiki/Mont%20Sujet"
  },
  {
    "pageid": 201636,
    "ns": 0,
    "title": "Safnern",
    "lat": 47.149723,
    "lon": 7.322782,
    "dist": 7142.9,
    "primary": "",
    "url": "https://fr.wikipedia.org/wiki/Safnern"
  },
  {
    "pageid": 201652,
    "ns": 0,
    "title": "Sutz-Lattrigen",
    "lat": 47.100005,
    "lon": 7.216679,
    "dist": 7233.2,
    "primary": "",
    "url": "https://fr.wikipedia.org/wiki/Sutz-Lattrigen"
  },
  {
    "pageid": 188093,
    "ns": 0,
    "title": "Bellmund",
    "lat": 47.100002,
    "lon": 7.250006,
    "dist": 7300.4,
    "primary": "",
    "url": "https://fr.wikipedia.org/wiki/Bellmund"
  },
  {
    "pageid": 201640,
    "ns": 0,
    "title": "Scheuren",
    "lat": 47.133337,
    "lon": 7.316676,
    "dist": 7353.1,
    "primary": "",
    "url": "https://fr.wikipedia.org/wiki/Scheuren"
  },
  {
    "pageid": 4052937,
    "ns": 0,
    "title": "Petinesca",
    "lat": 47.111783,
    "lon": 7.290808,
    "dist": 7400.2,
    "primary": "",
    "url": "https://fr.wikipedia.org/wiki/Petinesca"
  },
  {
    "pageid": 198782,
    "ns": 0,
    "title": "Corg\u00e9mont",
    "lat": 47.195837,
    "lon": 7.144455,
    "dist": 7405.7,
    "primary": "",
    "url": "https://fr.wikipedia.org/wiki/Corg%C3%A9mont"
  },
  {
    "pageid": 201648,
    "ns": 0,
    "title": "Studen",
    "lat": 47.116669,
    "lon": 7.300006,
    "dist": 7450.2,
    "primary": "",
    "url": "https://fr.wikipedia.org/wiki/Studen"
  },
  {
    "pageid": 201625,
    "ns": 0,
    "title": "Jens",
    "lat": 47.100001,
    "lon": 7.266669,
    "dist": 7651.8,
    "primary": "",
    "url": "https://fr.wikipedia.org/wiki/Jens"
  },
  {
    "pageid": 8041115,
    "ns": 0,
    "title": "Parc r\u00e9gional Chasseral",
    "lat": 47.1525,
    "lon": 7.1304,
    "dist": 7704.1,
    "primary": "",
    "url": "https://fr.wikipedia.org/wiki/Parc%20r%C3%A9gional%20Chasseral"
  },
  {
    "pageid": 188113,
    "ns": 0,
    "title": "Daucher-Alferm\u00e9e",
    "lat": 47.099999,
    "lon": 7.183339,
    "dist": 8004.7,
    "primary": "",
    "url": "https://fr.wikipedia.org/wiki/Daucher-Alferm%C3%A9e"
  },
  {
    "pageid": 195679,
    "ns": 0,
    "title": "Reconvilier",
    "lat": 47.236116,
    "lon": 7.222229,
    "dist": 8007.1,
    "primary": "",
    "url": "https://fr.wikipedia.org/wiki/Reconvilier"
  },
  {
    "pageid": 354946,
    "ns": 0,
    "title": "Vall\u00e9e de Tavannes",
    "lat": 47.233,
    "lon": 7.267,
    "dist": 8109.7,
    "primary": "",
    "url": "https://fr.wikipedia.org/wiki/Vall%C3%A9e%20de%20Tavannes"
  },
  {
    "pageid": 201666,
    "ns": 0,
    "title": "Worben",
    "lat": 47.099998,
    "lon": 7.283346,
    "dist": 8185,
    "primary": "",
    "url": "https://fr.wikipedia.org/wiki/Worben"
  },
  {
    "pageid": 210048,
    "ns": 0,
    "title": "Perles (Berne)",
    "lat": 47.175004,
    "lon": 7.3389,
    "dist": 8257.7,
    "primary": "",
    "url": "https://fr.wikipedia.org/wiki/Perles%20%28Berne%29"
  },
  {
    "pageid": 208027,
    "ns": 0,
    "title": "Meienried",
    "lat": 47.140277,
    "lon": 7.340283,
    "dist": 8701.1,
    "primary": "",
    "url": "https://fr.wikipedia.org/wiki/Meienried"
  },
  {
    "pageid": 189427,
    "ns": 0,
    "title": "Loveresse",
    "lat": 47.243061,
    "lon": 7.237508,
    "dist": 8767.9,
    "primary": "",
    "url": "https://fr.wikipedia.org/wiki/Loveresse"
  },
  {
    "pageid": 198810,
    "ns": 0,
    "title": "Lamboing",
    "lat": 47.118054,
    "lon": 7.136119,
    "dist": 8818.5,
    "primary": "",
    "url": "https://fr.wikipedia.org/wiki/Lamboing"
  },
  {
    "pageid": 8460696,
    "ns": 0,
    "title": "Valbirse",
    "lat": 47.238887,
    "lon": 7.270845,
    "dist": 8824.1,
    "primary": "",
    "url": "https://fr.wikipedia.org/wiki/Valbirse"
  },
  {
    "pageid": 195678,
    "ns": 0,
    "title": "Malleray",
    "lat": 47.238887,
    "lon": 7.270845,
    "dist": 8824.1,
    "primary": "",
    "url": "https://fr.wikipedia.org/wiki/Malleray"
  },
  {
    "pageid": 210049,
    "ns": 0,
    "title": "Meinisberg",
    "lat": 47.159721,
    "lon": 7.34779,
    "dist": 8860.4,
    "primary": "",
    "url": "https://fr.wikipedia.org/wiki/Meinisberg"
  },
  {
    "pageid": 198794,
    "ns": 0,
    "title": "Romont (Berne)",
    "lat": 47.19028,
    "lon": 7.341682,
    "dist": 8863.7,
    "primary": "",
    "url": "https://fr.wikipedia.org/wiki/Romont%20%28Berne%29"
  },
  {
    "pageid": 201634,
    "ns": 0,
    "title": "M\u00f6rigen",
    "lat": 47.08514,
    "lon": 7.21346,
    "dist": 8904,
    "primary": "",
    "url": "https://fr.wikipedia.org/wiki/M%C3%B6rigen"
  },
  {
    "pageid": 198825,
    "ns": 0,
    "title": "Pontenet",
    "lat": 47.243055,
    "lon": 7.255564,
    "dist": 8950.3,
    "primary": "",
    "url": "https://fr.wikipedia.org/wiki/Pontenet"
  },
  {
    "pageid": 198828,
    "ns": 0,
    "title": "Saicourt",
    "lat": 47.244443,
    "lon": 7.206953,
    "dist": 9087.1,
    "primary": "",
    "url": "https://fr.wikipedia.org/wiki/Saicourt"
  },
  {
    "pageid": 198829,
    "ns": 0,
    "title": "Saules (Berne)",
    "lat": 47.245834,
    "lon": 7.219455,
    "dist": 9101.9,
    "primary": "",
    "url": "https://fr.wikipedia.org/wiki/Saules%20%28Berne%29"
  },
  {
    "pageid": 10958129,
    "ns": 0,
    "title": "Tramelan-Dessous",
    "lat": 47.2195,
    "lon": 7.1416,
    "dist": 9112.6,
    "primary": "",
    "url": "https://fr.wikipedia.org/wiki/Tramelan-Dessous"
  },
  {
    "pageid": 201629,
    "ns": 0,
    "title": "Merzligen",
    "lat": 47.083334,
    "lon": 7.250012,
    "dist": 9124.3,
    "primary": "",
    "url": "https://fr.wikipedia.org/wiki/Merzligen"
  },
  {
    "pageid": 201615,
    "ns": 0,
    "title": "Hermrigen",
    "lat": 47.083334,
    "lon": 7.250012,
    "dist": 9124.3,
    "primary": "",
    "url": "https://fr.wikipedia.org/wiki/Hermrigen"
  },
  {
    "pageid": 189434,
    "ns": 0,
    "title": "B\u00e9vilard",
    "lat": 47.238888,
    "lon": 7.284739,
    "dist": 9236.9,
    "primary": "",
    "url": "https://fr.wikipedia.org/wiki/B%C3%A9vilard"
  },
  {
    "pageid": 208018,
    "ns": 0,
    "title": "Dotzigen",
    "lat": 47.12083,
    "lon": 7.340292,
    "dist": 9591.4,
    "primary": "",
    "url": "https://fr.wikipedia.org/wiki/Dotzigen"
  },
  {
    "pageid": 5573809,
    "ns": 0,
    "title": "Twann\u2013Bahnhof",
    "lat": 47.09421,
    "lon": 7.15677,
    "dist": 9600.7,
    "primary": "",
    "url": "https://fr.wikipedia.org/wiki/Twann%E2%80%93Bahnhof"
  },
  {
    "pageid": 52179,
    "ns": 0,
    "title": "Lac de Bienne",
    "lat": 47.085555555556,
    "lon": 7.1741666666667,
    "dist": 9752.1,
    "primary": "",
    "url": "https://fr.wikipedia.org/wiki/Lac%20de%20Bienne"
  },
  {
    "pageid": 198784,
    "ns": 0,
    "title": "Cort\u00e9bert",
    "lat": 47.190284,
    "lon": 7.106959,
    "dist": 9794.2,
    "primary": "",
    "url": "https://fr.wikipedia.org/wiki/Cort%C3%A9bert"
  },
  {
    "pageid": 10958124,
    "ns": 0,
    "title": "Tramelan-Dessus",
    "lat": 47.2203,
    "lon": 7.1306,
    "dist": 9799.6,
    "primary": "",
    "url": "https://fr.wikipedia.org/wiki/Tramelan-Dessus"
  },
  {
    "pageid": 208006,
    "ns": 0,
    "title": "Busswil bei B\u00fcren",
    "lat": 47.1,
    "lon": 7.323614,
    "dist": 10024.5,
    "primary": "",
    "url": "https://fr.wikipedia.org/wiki/Busswil%20bei%20B%C3%BCren"
  },
  {
    "pageid": 3231535,
    "ns": 0,
    "title": "Plateau de Diesse",
    "lat": 47.10909,
    "lon": 7.125,
    "dist": 10088.7,
    "primary": "",
    "url": "https://fr.wikipedia.org/wiki/Plateau%20de%20Diesse"
  },
  {
    "pageid": 198808,
    "ns": 0,
    "title": "Diesse",
    "lat": 47.11528,
    "lon": 7.11807,
    "dist": 10121.9,
    "primary": "",
    "url": "https://fr.wikipedia.org/wiki/Diesse"
  },
  {
    "pageid": 198833,
    "ns": 0,
    "title": "Sorvilier",
    "lat": 47.240281,
    "lon": 7.305562,
    "dist": 10159.1,
    "primary": "",
    "url": "https://fr.wikipedia.org/wiki/Sorvilier"
  },
  {
    "pageid": 196626,
    "ns": 0,
    "title": "Pr\u00eales (Berne)",
    "lat": 47.099999,
    "lon": 7.131953,
    "dist": 10348.6,
    "primary": "",
    "url": "https://fr.wikipedia.org/wiki/Pr%C3%AAles%20%28Berne%29"
  },
  {
    "pageid": 208004,
    "ns": 0,
    "title": "B\u00fcetigen",
    "lat": 47.106945,
    "lon": 7.344454,
    "dist": 10707.5,
    "primary": "",
    "url": "https://fr.wikipedia.org/wiki/B%C3%BCetigen"
  },
  {
    "pageid": 189456,
    "ns": 0,
    "title": "Douanne",
    "lat": 47.083333,
    "lon": 7.15001,
    "dist": 10885.6,
    "primary": "",
    "url": "https://fr.wikipedia.org/wiki/Douanne"
  },
  {
    "pageid": 4352746,
    "ns": 0,
    "title": "Douanne-Daucher",
    "lat": 47.083333,
    "lon": 7.15001,
    "dist": 10885.6,
    "primary": "",
    "url": "https://fr.wikipedia.org/wiki/Douanne-Daucher"
  },
  {
    "pageid": 207449,
    "ns": 0,
    "title": "Lyss",
    "lat": 47.075003,
    "lon": 7.306947,
    "dist": 11484.3,
    "primary": "",
    "url": "https://fr.wikipedia.org/wiki/Lyss"
  },
  {
    "pageid": 201420,
    "ns": 0,
    "title": "Gl\u00e9resse",
    "lat": 47.083335,
    "lon": 7.133339,
    "dist": 11640.5,
    "primary": "",
    "url": "https://fr.wikipedia.org/wiki/Gl%C3%A9resse"
  },
  {
    "pageid": 189437,
    "ns": 0,
    "title": "Court (Berne)",
    "lat": 47.240278,
    "lon": 7.33751,
    "dist": 11674.5,
    "primary": "",
    "url": "https://fr.wikipedia.org/wiki/Court%20%28Berne%29"
  },
  {
    "pageid": 198800,
    "ns": 0,
    "title": "Tramelan",
    "lat": 47.223611,
    "lon": 7.101405,
    "dist": 11790.4,
    "primary": "",
    "url": "https://fr.wikipedia.org/wiki/Tramelan"
  },
  {
    "pageid": 14414353,
    "ns": 0,
    "title": "Tunnel de Gl\u00e9resse",
    "lat": 47.0808691,
    "lon": 7.125878,
    "dist": 12213.2,
    "primary": "",
    "url": "https://fr.wikipedia.org/wiki/Tunnel%20de%20Gl%C3%A9resse"
  },
  {
    "pageid": 3789078,
    "ns": 0,
    "title": "Egg (Schwytz)",
    "lat": 47.1616,
    "lon": 8.7825,
    "dist": 476.5,
    "primary": "",
    "url": "https://fr.wikipedia.org/wiki/Egg%20%28Schwytz%29"
  },
  {
    "pageid": 3788853,
    "ns": 0,
    "title": "Pont du Diable (Egg)",
    "lat": 47.1674,
    "lon": 8.7672,
    "dist": 860.5,
    "primary": "",
    "url": "https://fr.wikipedia.org/wiki/Pont%20du%20Diable%20%28Egg%29"
  },
  {
    "pageid": 219243,
    "ns": 0,
    "title": "Feusisberg",
    "lat": 47.187217,
    "lon": 8.747496,
    "dist": 3415.6,
    "primary": "",
    "url": "https://fr.wikipedia.org/wiki/Feusisberg"
  },
  {
    "pageid": 1667995,
    "ns": 0,
    "title": "Alpamare",
    "lat": 47.1992,
    "lon": 8.79083,
    "dist": 4001.9,
    "primary": "",
    "url": "https://fr.wikipedia.org/wiki/Alpamare"
  },
  {
    "pageid": 1977156,
    "ns": 0,
    "title": "Pf\u00e4ffikon (Schwytz)",
    "lat": 47.2,
    "lon": 8.76667,
    "dist": 4051,
    "primary": "",
    "url": "https://fr.wikipedia.org/wiki/Pf%C3%A4ffikon%20%28Schwytz%29"
  },
  {
    "pageid": 15701605,
    "ns": 0,
    "title": "Panorama de la Crucifixion du Christ \u00e0 Einsiedeln",
    "lat": 47.131619,
    "lon": 8.749396,
    "dist": 4219.8,
    "primary": "",
    "url": "https://fr.wikipedia.org/wiki/Panorama%20de%20la%20Crucifixion%20du%20Christ%20%C3%A0%20Einsiedeln"
  },
  {
    "pageid": 7450583,
    "ns": 0,
    "title": "Biberbrugg",
    "lat": 47.155278,
    "lon": 8.722778,
    "dist": 4269.9,
    "primary": "",
    "url": "https://fr.wikipedia.org/wiki/Biberbrugg"
  },
  {
    "pageid": 15903710,
    "ns": 0,
    "title": "Gare de Pf\u00e4ffikon SZ",
    "lat": 47.203,
    "lon": 8.778111,
    "dist": 4298.7,
    "primary": "",
    "url": "https://fr.wikipedia.org/wiki/Gare%20de%20Pf%C3%A4ffikon%20SZ"
  },
  {
    "pageid": 11076732,
    "ns": 0,
    "title": "Archives de l'abbaye territoriale d'Einsiedeln",
    "lat": 47.12667,
    "lon": 8.751472,
    "dist": 4633.4,
    "primary": "",
    "url": "https://fr.wikipedia.org/wiki/Archives%20de%20l%27abbaye%20territoriale%20d%27Einsiedeln"
  },
  {
    "pageid": 3169579,
    "ns": 0,
    "title": "Abbaye territoriale d'Einsiedeln",
    "lat": 47.12667,
    "lon": 8.751472,
    "dist": 4633.4,
    "primary": "",
    "url": "https://fr.wikipedia.org/wiki/Abbaye%20territoriale%20d%27Einsiedeln"
  },
  {
    "pageid": 3040999,
    "ns": 0,
    "title": "Lac de Sihl",
    "lat": 47.12194,
    "lon": 8.78417,
    "dist": 4740.6,
    "primary": "",
    "url": "https://fr.wikipedia.org/wiki/Lac%20de%20Sihl"
  },
  {
    "pageid": 219237,
    "ns": 0,
    "title": "Freienbach",
    "lat": 47.204992,
    "lon": 8.757778,
    "dist": 4763.2,
    "primary": "",
    "url": "https://fr.wikipedia.org/wiki/Freienbach"
  },
  {
    "pageid": 219229,
    "ns": 0,
    "title": "Einsiedeln",
    "lat": 47.128055,
    "lon": 8.743058,
    "dist": 4809.1,
    "primary": "",
    "url": "https://fr.wikipedia.org/wiki/Einsiedeln"
  },
  {
    "pageid": 219245,
    "ns": 0,
    "title": "Altendorf (Schwytz)",
    "lat": 47.192492,
    "lon": 8.830003,
    "dist": 5044.9,
    "primary": "",
    "url": "https://fr.wikipedia.org/wiki/Altendorf%20%28Schwytz%29"
  },
  {
    "pageid": 536369,
    "ns": 0,
    "title": "District de H\u00f6fe",
    "lat": 47.183333333333,
    "lon": 8.7166666666667,
    "dist": 5070.7,
    "primary": "",
    "url": "https://fr.wikipedia.org/wiki/District%20de%20H%C3%B6fe"
  },
  {
    "pageid": 219241,
    "ns": 0,
    "title": "Wollerau",
    "lat": 47.195826,
    "lon": 8.719449,
    "dist": 5622.2,
    "primary": "",
    "url": "https://fr.wikipedia.org/wiki/Wollerau"
  },
  {
    "pageid": 536374,
    "ns": 0,
    "title": "District de March",
    "lat": 47.183333333333,
    "lon": 8.85,
    "dist": 5861.9,
    "primary": "",
    "url": "https://fr.wikipedia.org/wiki/District%20de%20March"
  },
  {
    "pageid": 8014441,
    "ns": 0,
    "title": "Ufenau",
    "lat": 47.218055555556,
    "lon": 8.7816666666667,
    "dist": 5980.4,
    "primary": "",
    "url": "https://fr.wikipedia.org/wiki/Ufenau"
  },
  {
    "pageid": 536246,
    "ns": 0,
    "title": "District d'Einsiedeln",
    "lat": 47.116666666667,
    "lon": 8.7333333333333,
    "dist": 6272.3,
    "primary": "",
    "url": "https://fr.wikipedia.org/wiki/District%20d%27Einsiedeln"
  },
  {
    "pageid": 11183044,
    "ns": 0,
    "title": "\u00cele Sch\u00f6nenwerd",
    "lat": 47.20361,
    "lon": 8.71722,
    "dist": 6318.7,
    "primary": "",
    "url": "https://fr.wikipedia.org/wiki/%C3%8Ele%20Sch%C3%B6nenwerd"
  },
  {
    "pageid": 11161444,
    "ns": 0,
    "title": "L\u00fctzelau",
    "lat": 47.22083,
    "lon": 8.7925,
    "dist": 6380.5,
    "primary": "",
    "url": "https://fr.wikipedia.org/wiki/L%C3%BCtzelau"
  },
  {
    "pageid": 219248,
    "ns": 0,
    "title": "Lachen (Schwytz)",
    "lat": 47.191384,
    "lon": 8.856672,
    "dist": 6686.5,
    "primary": "",
    "url": "https://fr.wikipedia.org/wiki/Lachen%20%28Schwytz%29"
  },
  {
    "pageid": 298292,
    "ns": 0,
    "title": "Jona",
    "lat": 47.21666,
    "lon": 8.833339,
    "dist": 7179.7,
    "primary": "",
    "url": "https://fr.wikipedia.org/wiki/Jona"
  },
  {
    "pageid": 263136,
    "ns": 0,
    "title": "Richterswil",
    "lat": 47.208328,
    "lon": 8.705835,
    "dist": 7306.2,
    "primary": "",
    "url": "https://fr.wikipedia.org/wiki/Richterswil"
  },
  {
    "pageid": 3603273,
    "ns": 0,
    "title": "St. Galler Kantonalbank Arena",
    "lat": 47.223061,
    "lon": 8.825543,
    "dist": 7464.8,
    "primary": "",
    "url": "https://fr.wikipedia.org/wiki/St.%20Galler%20Kantonalbank%20Arena"
  },
  {
    "pageid": 8681120,
    "ns": 0,
    "title": "Mus\u00e9e polonais de Rapperswil",
    "lat": 47.22666,
    "lon": 8.818333,
    "dist": 7580.5,
    "primary": "",
    "url": "https://fr.wikipedia.org/wiki/Mus%C3%A9e%20polonais%20de%20Rapperswil"
  },
  {
    "pageid": 284449,
    "ns": 0,
    "title": "Rapperswil (Saint-Gall)",
    "lat": 47.226665,
    "lon": 8.818334,
    "dist": 7581,
    "primary": "",
    "url": "https://fr.wikipedia.org/wiki/Rapperswil%20%28Saint-Gall%29"
  },
  {
    "pageid": 13733503,
    "ns": 0,
    "title": "Ch\u00e2teau de Rapperswil",
    "lat": 47.226667,
    "lon": 8.818333,
    "dist": 7581.2,
    "primary": "",
    "url": "https://fr.wikipedia.org/wiki/Ch%C3%A2teau%20de%20Rapperswil"
  },
  {
    "pageid": 528607,
    "ns": 0,
    "title": "Circonscription \u00e9lectorale de See-Gaster",
    "lat": 47.22667,
    "lon": 8.81833,
    "dist": 7581.4,
    "primary": "",
    "url": "https://fr.wikipedia.org/wiki/Circonscription%20%C3%A9lectorale%20de%20See-Gaster"
  },
  {
    "pageid": 537893,
    "ns": 0,
    "title": "Galgenen",
    "lat": 47.182493,
    "lon": 8.875002,
    "dist": 7630,
    "primary": "",
    "url": "https://fr.wikipedia.org/wiki/Galgenen"
  },
  {
    "pageid": 1896857,
    "ns": 0,
    "title": "Rapperswil-Jona",
    "lat": 47.228698,
    "lon": 8.831764,
    "dist": 8241.5,
    "primary": "",
    "url": "https://fr.wikipedia.org/wiki/Rapperswil-Jona"
  },
  {
    "pageid": 263111,
    "ns": 0,
    "title": "H\u00fctten (Zurich)",
    "lat": 47.174436,
    "lon": 8.666391,
    "dist": 8485.5,
    "primary": "",
    "url": "https://fr.wikipedia.org/wiki/H%C3%BCtten%20%28Zurich%29"
  },
  {
    "pageid": 263063,
    "ns": 0,
    "title": "St\u00e4fa",
    "lat": 47.241941,
    "lon": 8.722496,
    "dist": 9582.2,
    "primary": "",
    "url": "https://fr.wikipedia.org/wiki/St%C3%A4fa"
  },
  {
    "pageid": 262960,
    "ns": 0,
    "title": "Hombrechtikon",
    "lat": 47.253603,
    "lon": 8.770552,
    "dist": 9939.9,
    "primary": "",
    "url": "https://fr.wikipedia.org/wiki/Hombrechtikon"
  },
  {
    "pageid": 219262,
    "ns": 0,
    "title": "Rothenthurm",
    "lat": 47.104439,
    "lon": 8.674721,
    "dist": 10246.7,
    "primary": "",
    "url": "https://fr.wikipedia.org/wiki/Rothenthurm"
  },
  {
    "pageid": 263158,
    "ns": 0,
    "title": "W\u00e4denswil",
    "lat": 47.230553,
    "lon": 8.672223,
    "dist": 10847.1,
    "primary": "",
    "url": "https://fr.wikipedia.org/wiki/W%C3%A4denswil"
  },
  {
    "pageid": 443046,
    "ns": 0,
    "title": "Lac de Zurich",
    "lat": 47.2475,
    "lon": 8.6775,
    "dist": 11947.7,
    "primary": "",
    "url": "https://fr.wikipedia.org/wiki/Lac%20de%20Zurich"
  },
  {
    "pageid": 1115725,
    "ns": 0,
    "title": "Vernois-le-Fol",
    "lat": 47.351538,
    "lon": 6.98553,
    "dist": 1368.6,
    "primary": "",
    "url": "https://fr.wikipedia.org/wiki/Vernois-le-Fol"
  },
  {
    "pageid": 306566,
    "ns": 0,
    "title": "Gl\u00e8re",
    "lat": 47.3444444444,
    "lon": 6.995,
    "dist": 1823.9,
    "primary": "",
    "url": "https://fr.wikipedia.org/wiki/Gl%C3%A8re"
  },
  {
    "pageid": 187636,
    "ns": 0,
    "title": "Roche-d'Or",
    "lat": 47.367083,
    "lon": 6.954194,
    "dist": 2820.9,
    "primary": "",
    "url": "https://fr.wikipedia.org/wiki/Roche-d%27Or"
  },
  {
    "pageid": 306533,
    "ns": 0,
    "title": "Burnevillers",
    "lat": 47.3297222222,
    "lon": 7.00888888889,
    "dist": 3299,
    "primary": "",
    "url": "https://fr.wikipedia.org/wiki/Burnevillers"
  },
  {
    "pageid": 306563,
    "ns": 0,
    "title": "Vaufrey",
    "lat": 47.3486111111,
    "lon": 6.925,
    "dist": 3482.6,
    "primary": "",
    "url": "https://fr.wikipedia.org/wiki/Vaufrey"
  },
  {
    "pageid": 306542,
    "ns": 0,
    "title": "Indevillers",
    "lat": 47.3133333333,
    "lon": 6.9575,
    "dist": 3590.6,
    "primary": "",
    "url": "https://fr.wikipedia.org/wiki/Indevillers"
  },
  {
    "pageid": 667513,
    "ns": 0,
    "title": "Grottes de R\u00e9cl\u00e8re",
    "lat": 47.358889,
    "lon": 6.914167,
    "dist": 4562.3,
    "primary": "",
    "url": "https://fr.wikipedia.org/wiki/Grottes%20de%20R%C3%A9cl%C3%A8re"
  },
  {
    "pageid": 160440,
    "ns": 0,
    "title": "Rocourt (Jura)",
    "lat": 47.3833333333,
    "lon": 6.95,
    "dist": 4609.8,
    "primary": "",
    "url": "https://fr.wikipedia.org/wiki/Rocourt%20%28Jura%29"
  },
  {
    "pageid": 187639,
    "ns": 0,
    "title": "R\u00e9cl\u00e8re",
    "lat": 47.375389,
    "lon": 6.922222,
    "dist": 5030.2,
    "primary": "",
    "url": "https://fr.wikipedia.org/wiki/R%C3%A9cl%C3%A8re"
  },
  {
    "pageid": 1693380,
    "ns": 0,
    "title": "Grandfontaine (Jura)",
    "lat": 47.3833333333,
    "lon": 6.93333333333,
    "dist": 5172.8,
    "primary": "",
    "url": "https://fr.wikipedia.org/wiki/Grandfontaine%20%28Jura%29"
  },
  {
    "pageid": 306548,
    "ns": 0,
    "title": "Montjoie-le-Ch\u00e2teau",
    "lat": 47.3505555556,
    "lon": 6.9025,
    "dist": 5191.4,
    "primary": "",
    "url": "https://fr.wikipedia.org/wiki/Montjoie-le-Ch%C3%A2teau"
  },
  {
    "pageid": 306535,
    "ns": 0,
    "title": "Courtefontaine (Doubs)",
    "lat": 47.3213888889,
    "lon": 6.90888888889,
    "dist": 5317.7,
    "primary": "",
    "url": "https://fr.wikipedia.org/wiki/Courtefontaine%20%28Doubs%29"
  },
  {
    "pageid": 7497199,
    "ns": 0,
    "title": "Ch\u00e2teau de Montjoie-le-Ch\u00e2teau",
    "lat": 47.3511,
    "lon": 6.9008,
    "dist": 5326.6,
    "primary": "",
    "url": "https://fr.wikipedia.org/wiki/Ch%C3%A2teau%20de%20Montjoie-le-Ch%C3%A2teau"
  },
  {
    "pageid": 187649,
    "ns": 0,
    "title": "Chevenez",
    "lat": 47.391556,
    "lon": 6.998694,
    "dist": 5654.9,
    "primary": "",
    "url": "https://fr.wikipedia.org/wiki/Chevenez"
  },
  {
    "pageid": 5549309,
    "ns": 0,
    "title": "Montancy",
    "lat": 47.3472222222,
    "lon": 7.04777777778,
    "dist": 5809.1,
    "primary": "",
    "url": "https://fr.wikipedia.org/wiki/Montancy"
  },
  {
    "pageid": 3567516,
    "ns": 0,
    "title": "Haute-Ajoie",
    "lat": 47.393061,
    "lon": 7.000014,
    "dist": 5847.2,
    "primary": "",
    "url": "https://fr.wikipedia.org/wiki/Haute-Ajoie"
  },
  {
    "pageid": 187657,
    "ns": 0,
    "title": "Damvant",
    "lat": 47.372472,
    "lon": 6.897778,
    "dist": 6327.1,
    "primary": "",
    "url": "https://fr.wikipedia.org/wiki/Damvant"
  },
  {
    "pageid": 1796161,
    "ns": 0,
    "title": "\u00c9piquerez",
    "lat": 47.328333,
    "lon": 7.058389,
    "dist": 6836.7,
    "primary": "",
    "url": "https://fr.wikipedia.org/wiki/%C3%89piquerez"
  },
  {
    "pageid": 13709173,
    "ns": 0,
    "title": "Ch\u00e2teau de Montvoie",
    "lat": 47.365919,
    "lon": 7.056713,
    "dist": 6902.7,
    "primary": "",
    "url": "https://fr.wikipedia.org/wiki/Ch%C3%A2teau%20de%20Montvoie"
  },
  {
    "pageid": 9891028,
    "ns": 0,
    "title": "A\u00e9rodrome de Bressaucourt",
    "lat": 47.3925,
    "lon": 7.02883,
    "dist": 6912.2,
    "primary": "",
    "url": "https://fr.wikipedia.org/wiki/A%C3%A9rodrome%20de%20Bressaucourt"
  },
  {
    "pageid": 11419308,
    "ns": 0,
    "title": "\u00cele du Milieu (Doubs)",
    "lat": 47.28375,
    "lon": 6.941889,
    "dist": 7081.1,
    "primary": "",
    "url": "https://fr.wikipedia.org/wiki/%C3%8Ele%20du%20Milieu%20%28Doubs%29"
  },
  {
    "pageid": 188593,
    "ns": 0,
    "title": "Soubey",
    "lat": 47.309726,
    "lon": 7.050013,
    "dist": 7103.9,
    "primary": "",
    "url": "https://fr.wikipedia.org/wiki/Soubey"
  },
  {
    "pageid": 187645,
    "ns": 0,
    "title": "Bressaucourt",
    "lat": 47.388894,
    "lon": 7.038907,
    "dist": 7131.4,
    "primary": "",
    "url": "https://fr.wikipedia.org/wiki/Bressaucourt"
  },
  {
    "pageid": 376256,
    "ns": 0,
    "title": "Creugenat",
    "lat": 47.3963,
    "lon": 7.0273111,
    "dist": 7176,
    "primary": "",
    "url": "https://fr.wikipedia.org/wiki/Creugenat"
  },
  {
    "pageid": 307278,
    "ns": 0,
    "title": "Les Plains-et-Grands-Essarts",
    "lat": 47.3044444444,
    "lon": 6.89555555556,
    "dist": 7200.1,
    "primary": "",
    "url": "https://fr.wikipedia.org/wiki/Les%20Plains-et-Grands-Essarts"
  },
  {
    "pageid": 340935,
    "ns": 0,
    "title": "Dannemarie (Doubs)",
    "lat": 47.3911,
    "lon": 6.8978,
    "dist": 7566.5,
    "primary": "",
    "url": "https://fr.wikipedia.org/wiki/Dannemarie%20%28Doubs%29"
  },
  {
    "pageid": 5429551,
    "ns": 0,
    "title": "Barrage de Grosbois (Doubs)",
    "lat": 47.334544,
    "lon": 6.867868,
    "dist": 7831.7,
    "primary": "",
    "url": "https://fr.wikipedia.org/wiki/Barrage%20de%20Grosbois%20%28Doubs%29"
  },
  {
    "pageid": 221907,
    "ns": 0,
    "title": "Villars-l\u00e8s-Blamont",
    "lat": 47.3742,
    "lon": 6.8739,
    "dist": 8018,
    "primary": "",
    "url": "https://fr.wikipedia.org/wiki/Villars-l%C3%A8s-Blamont"
  },
  {
    "pageid": 187667,
    "ns": 0,
    "title": "Ocourt",
    "lat": 47.351417,
    "lon": 7.077,
    "dist": 8040.2,
    "primary": "",
    "url": "https://fr.wikipedia.org/wiki/Ocourt"
  },
  {
    "pageid": 188583,
    "ns": 0,
    "title": "Les Pommerats",
    "lat": 47.272508,
    "lon": 6.986124,
    "dist": 8070.8,
    "primary": "",
    "url": "https://fr.wikipedia.org/wiki/Les%20Pommerats"
  },
  {
    "pageid": 6005213,
    "ns": 0,
    "title": "\u00c9glise Saint-Maurice de Fessevillers",
    "lat": 47.280833,
    "lon": 6.915833,
    "dist": 8187.7,
    "primary": "",
    "url": "https://fr.wikipedia.org/wiki/%C3%89glise%20Saint-Maurice%20de%20Fessevillers"
  },
  {
    "pageid": 340964,
    "ns": 0,
    "title": "Fessevillers",
    "lat": 47.2811111111,
    "lon": 6.915,
    "dist": 8193.1,
    "primary": "",
    "url": "https://fr.wikipedia.org/wiki/Fessevillers"
  },
  {
    "pageid": 188580,
    "ns": 0,
    "title": "Les Enfers",
    "lat": 47.28889,
    "lon": 7.045842,
    "dist": 8368.2,
    "primary": "",
    "url": "https://fr.wikipedia.org/wiki/Les%20Enfers"
  },
  {
    "pageid": 187658,
    "ns": 0,
    "title": "Fahy",
    "lat": 47.419454,
    "lon": 6.951402,
    "dist": 8478.7,
    "primary": "",
    "url": "https://fr.wikipedia.org/wiki/Fahy"
  },
  {
    "pageid": 306554,
    "ns": 0,
    "title": "Soulce-Cernay",
    "lat": 47.3258333333,
    "lon": 6.85916666667,
    "dist": 8660.1,
    "primary": "",
    "url": "https://fr.wikipedia.org/wiki/Soulce-Cernay"
  },
  {
    "pageid": 187655,
    "ns": 0,
    "title": "Courtedoux",
    "lat": 47.40973,
    "lon": 7.04307,
    "dist": 9082,
    "primary": "",
    "url": "https://fr.wikipedia.org/wiki/Courtedoux"
  },
  {
    "pageid": 188584,
    "ns": 0,
    "title": "Montfaucon (Jura)",
    "lat": 47.283341,
    "lon": 7.051408,
    "dist": 9107.4,
    "primary": "",
    "url": "https://fr.wikipedia.org/wiki/Montfaucon%20%28Jura%29"
  },
  {
    "pageid": 340941,
    "ns": 0,
    "title": "Glay (Doubs)",
    "lat": 47.4064,
    "lon": 6.8911,
    "dist": 9144.9,
    "primary": "",
    "url": "https://fr.wikipedia.org/wiki/Glay%20%28Doubs%29"
  },
  {
    "pageid": 188556,
    "ns": 0,
    "title": "Goumois (Jura)",
    "lat": 47.262505,
    "lon": 6.952793,
    "dist": 9200.5,
    "primary": "",
    "url": "https://fr.wikipedia.org/wiki/Goumois%20%28Jura%29"
  },
  {
    "pageid": 220431,
    "ns": 0,
    "title": "Canton de Saint-Hippolyte",
    "lat": 47.3271454,
    "lon": 6.851187,
    "dist": 9213.8,
    "primary": "",
    "url": "https://fr.wikipedia.org/wiki/Canton%20de%20Saint-Hippolyte"
  },
  {
    "pageid": 50839,
    "ns": 0,
    "title": "Goumois",
    "lat": 47.2616,
    "lon": 6.9511,
    "dist": 9319.6,
    "primary": "",
    "url": "https://fr.wikipedia.org/wiki/Goumois"
  },
  {
    "pageid": 340976,
    "ns": 0,
    "title": "Goumois (Doubs)",
    "lat": 47.2616666667,
    "lon": 6.95,
    "dist": 9325.8,
    "primary": "",
    "url": "https://fr.wikipedia.org/wiki/Goumois%20%28Doubs%29"
  },
  {
    "pageid": 188568,
    "ns": 0,
    "title": "Le B\u00e9mont",
    "lat": 47.265283,
    "lon": 7.013907,
    "dist": 9372.8,
    "primary": "",
    "url": "https://fr.wikipedia.org/wiki/Le%20B%C3%A9mont"
  },
  {
    "pageid": 11072134,
    "ns": 0,
    "title": "Circuit de Porrentruy-Courtedoux",
    "lat": 47.410179,
    "lon": 7.049016,
    "dist": 9396,
    "primary": "",
    "url": "https://fr.wikipedia.org/wiki/Circuit%20de%20Porrentruy-Courtedoux"
  },
  {
    "pageid": 13027005,
    "ns": 0,
    "title": "Gare du B\u00e9mont",
    "lat": 47.263173,
    "lon": 7.01412,
    "dist": 9598.7,
    "primary": "",
    "url": "https://fr.wikipedia.org/wiki/Gare%20du%20B%C3%A9mont"
  },
  {
    "pageid": 188586,
    "ns": 0,
    "title": "Montfavergier",
    "lat": 47.31084,
    "lon": 7.091676,
    "dist": 9843,
    "primary": "",
    "url": "https://fr.wikipedia.org/wiki/Montfavergier"
  },
  {
    "pageid": 188590,
    "ns": 0,
    "title": "Saignel\u00e9gier",
    "lat": 47.256945,
    "lon": 6.997234,
    "dist": 9920.5,
    "primary": "",
    "url": "https://fr.wikipedia.org/wiki/Saignel%C3%A9gier"
  },
  {
    "pageid": 10526290,
    "ns": 0,
    "title": "Gare de Pr\u00e9-Petitjean",
    "lat": 47.277085,
    "lon": 7.058546,
    "dist": 9985,
    "primary": "",
    "url": "https://fr.wikipedia.org/wiki/Gare%20de%20Pr%C3%A9-Petitjean"
  },
  {
    "pageid": 14030561,
    "ns": 0,
    "title": "La Traction",
    "lat": 47.278299,
    "lon": 7.061805,
    "dist": 10050.4,
    "primary": "",
    "url": "https://fr.wikipedia.org/wiki/La%20Traction"
  },
  {
    "pageid": 340992,
    "ns": 0,
    "title": "Urti\u00e8re",
    "lat": 47.2586111111,
    "lon": 6.92638888889,
    "dist": 10103.8,
    "primary": "",
    "url": "https://fr.wikipedia.org/wiki/Urti%C3%A8re"
  },
  {
    "pageid": 13027377,
    "ns": 0,
    "title": "Gare de Saignel\u00e9gier",
    "lat": 47.254445,
    "lon": 6.994258,
    "dist": 10151.5,
    "primary": "",
    "url": "https://fr.wikipedia.org/wiki/Gare%20de%20Saignel%C3%A9gier"
  },
  {
    "pageid": 340990,
    "ns": 0,
    "title": "Tr\u00e9villers",
    "lat": 47.2830555556,
    "lon": 6.87,
    "dist": 10206.9,
    "primary": "",
    "url": "https://fr.wikipedia.org/wiki/Tr%C3%A9villers"
  },
  {
    "pageid": 340943,
    "ns": 0,
    "title": "Mesli\u00e8res",
    "lat": 47.4181,
    "lon": 6.8886,
    "dist": 10274.4,
    "primary": "",
    "url": "https://fr.wikipedia.org/wiki/Mesli%C3%A8res"
  },
  {
    "pageid": 340932,
    "ns": 0,
    "title": "Blamont",
    "lat": 47.3863888889,
    "lon": 6.84888888889,
    "dist": 10303.1,
    "primary": "",
    "url": "https://fr.wikipedia.org/wiki/Blamont"
  },
  {
    "pageid": 7890859,
    "ns": 0,
    "title": "Chapelle Saint-Roch d'Urti\u00e8re",
    "lat": 47.2572,
    "lon": 6.9243,
    "dist": 10304.5,
    "primary": "",
    "url": "https://fr.wikipedia.org/wiki/Chapelle%20Saint-Roch%20d%27Urti%C3%A8re"
  },
  {
    "pageid": 340965,
    "ns": 0,
    "title": "Ferri\u00e8res-le-Lac",
    "lat": 47.2680555556,
    "lon": 6.8925,
    "dist": 10334.6,
    "primary": "",
    "url": "https://fr.wikipedia.org/wiki/Ferri%C3%A8res-le-Lac"
  },
  {
    "pageid": 340928,
    "ns": 0,
    "title": "Abb\u00e9villers",
    "lat": 47.43087,
    "lon": 6.9188,
    "dist": 10387.2,
    "primary": "",
    "url": "https://fr.wikipedia.org/wiki/Abb%C3%A9villers"
  },
  {
    "pageid": 15809800,
    "ns": 0,
    "title": "Monument aux morts d'Abb\u00e9villers",
    "lat": 47.430971,
    "lon": 6.918889,
    "dist": 10395.1,
    "primary": "",
    "url": "https://fr.wikipedia.org/wiki/Monument%20aux%20morts%20d%27Abb%C3%A9villers"
  },
  {
    "pageid": 187659,
    "ns": 0,
    "title": "Fontenais",
    "lat": 47.404168,
    "lon": 7.080576,
    "dist": 10611.1,
    "primary": "",
    "url": "https://fr.wikipedia.org/wiki/Fontenais"
  },
  {
    "pageid": 183535,
    "ns": 0,
    "title": "District de Porrentruy",
    "lat": 47.4167,
    "lon": 7.0667,
    "dist": 10811.1,
    "primary": "",
    "url": "https://fr.wikipedia.org/wiki/District%20de%20Porrentruy"
  },
  {
    "pageid": 455455,
    "ns": 0,
    "title": "Ajoie",
    "lat": 47.417,
    "lon": 7.067,
    "dist": 10851,
    "primary": "",
    "url": "https://fr.wikipedia.org/wiki/Ajoie"
  },
  {
    "pageid": 340961,
    "ns": 0,
    "title": "Belfays",
    "lat": 47.26,
    "lon": 6.89694444444,
    "dist": 10907,
    "primary": "",
    "url": "https://fr.wikipedia.org/wiki/Belfays"
  },
  {
    "pageid": 1372597,
    "ns": 0,
    "title": "Jardin botanique de Porrentruy",
    "lat": 47.41367,
    "lon": 7.0773,
    "dist": 11123.8,
    "primary": "",
    "url": "https://fr.wikipedia.org/wiki/Jardin%20botanique%20de%20Porrentruy"
  },
  {
    "pageid": 1265215,
    "ns": 0,
    "title": "Banque cantonale du Jura",
    "lat": 47.416931,
    "lon": 7.07329,
    "dist": 11167.2,
    "primary": "",
    "url": "https://fr.wikipedia.org/wiki/Banque%20cantonale%20du%20Jura"
  },
  {
    "pageid": 1338066,
    "ns": 0,
    "title": "Biblioth\u00e8que cantonale jurassienne",
    "lat": 47.41729,
    "lon": 7.07394,
    "dist": 11229.9,
    "primary": "",
    "url": "https://fr.wikipedia.org/wiki/Biblioth%C3%A8que%20cantonale%20jurassienne"
  },
  {
    "pageid": 10560241,
    "ns": 0,
    "title": "Archives cantonales jurassiennes",
    "lat": 47.41729,
    "lon": 7.07394,
    "dist": 11229.9,
    "primary": "",
    "url": "https://fr.wikipedia.org/wiki/Archives%20cantonales%20jurassiennes"
  },
  {
    "pageid": 12841939,
    "ns": 0,
    "title": "\u00c9glise Saint-Pierre (Porrentruy)",
    "lat": 47.41584,
    "lon": 7.07667,
    "dist": 11258.6,
    "primary": "",
    "url": "https://fr.wikipedia.org/wiki/%C3%89glise%20Saint-Pierre%20%28Porrentruy%29"
  },
  {
    "pageid": 3986947,
    "ns": 0,
    "title": "Rock'air",
    "lat": 47.4171,
    "lon": 7.0755,
    "dist": 11296.3,
    "primary": "",
    "url": "https://fr.wikipedia.org/wiki/Rock%27air"
  },
  {
    "pageid": 187631,
    "ns": 0,
    "title": "Porrentruy",
    "lat": 47.41713,
    "lon": 7.07613,
    "dist": 11331.8,
    "primary": "",
    "url": "https://fr.wikipedia.org/wiki/Porrentruy"
  },
  {
    "pageid": 1385509,
    "ns": 0,
    "title": "Ch\u00e2teau de Porrentruy",
    "lat": 47.419429,
    "lon": 7.072598,
    "dist": 11334.2,
    "primary": "",
    "url": "https://fr.wikipedia.org/wiki/Ch%C3%A2teau%20de%20Porrentruy"
  },
  {
    "pageid": 6357950,
    "ns": 0,
    "title": "Prise de Porrentruy",
    "lat": 47.418055,
    "lon": 7.077793,
    "dist": 11492.9,
    "primary": "",
    "url": "https://fr.wikipedia.org/wiki/Prise%20de%20Porrentruy"
  },
  {
    "pageid": 431897,
    "ns": 0,
    "title": "Championnat de Suisse de hockey sur glace D2",
    "lat": 47.418055,
    "lon": 7.077806,
    "dist": 11493.6,
    "primary": "",
    "url": "https://fr.wikipedia.org/wiki/Championnat%20de%20Suisse%20de%20hockey%20sur%20glace%20D2"
  },
  {
    "pageid": 340945,
    "ns": 0,
    "title": "Roches-l\u00e8s-Blamont",
    "lat": 47.41,
    "lon": 6.8519,
    "dist": 11552,
    "primary": "",
    "url": "https://fr.wikipedia.org/wiki/Roches-l%C3%A8s-Blamont"
  },
  {
    "pageid": 340989,
    "ns": 0,
    "title": "Thi\u00e9bouhans",
    "lat": 47.2816666667,
    "lon": 6.84722222222,
    "dist": 11634.3,
    "primary": "",
    "url": "https://fr.wikipedia.org/wiki/Thi%C3%A9bouhans"
  },
  {
    "pageid": 10650638,
    "ns": 0,
    "title": "Gare de La Combe",
    "lat": 47.284331,
    "lon": 7.099507,
    "dist": 11776.4,
    "primary": "",
    "url": "https://fr.wikipedia.org/wiki/Gare%20de%20La%20Combe"
  },
  {
    "pageid": 5503487,
    "ns": 0,
    "title": "Gare de Porrentruy",
    "lat": 47.42087,
    "lon": 7.080361,
    "dist": 11851.8,
    "primary": "",
    "url": "https://fr.wikipedia.org/wiki/Gare%20de%20Porrentruy"
  },
  {
    "pageid": 8380834,
    "ns": 0,
    "title": "Raiffeisen Arena (Porrentruy)",
    "lat": 47.41724,
    "lon": 7.08995,
    "dist": 12091.1,
    "primary": "",
    "url": "https://fr.wikipedia.org/wiki/Raiffeisen%20Arena%20%28Porrentruy%29"
  },
  {
    "pageid": 340949,
    "ns": 0,
    "title": "Thulay",
    "lat": 47.425,
    "lon": 6.8622,
    "dist": 12135.9,
    "primary": "",
    "url": "https://fr.wikipedia.org/wiki/Thulay"
  },
  {
    "pageid": 6046619,
    "ns": 0,
    "title": "Haute-Sorne",
    "lat": 47.338894,
    "lon": 7.24584,
    "dist": 1285.5,
    "primary": "",
    "url": "https://fr.wikipedia.org/wiki/Haute-Sorne"
  },
  {
    "pageid": 185628,
    "ns": 0,
    "title": "Bassecourt",
    "lat": 47.338894,
    "lon": 7.24584,
    "dist": 1285.5,
    "primary": "",
    "url": "https://fr.wikipedia.org/wiki/Bassecourt"
  },
  {
    "pageid": 185630,
    "ns": 0,
    "title": "Bo\u00e9court",
    "lat": 47.351395,
    "lon": 7.215289,
    "dist": 1406.9,
    "primary": "",
    "url": "https://fr.wikipedia.org/wiki/Bo%C3%A9court"
  },
  {
    "pageid": 5450185,
    "ns": 0,
    "title": "Gare de Bassecourt",
    "lat": 47.336619,
    "lon": 7.246813,
    "dist": 1481.4,
    "primary": "",
    "url": "https://fr.wikipedia.org/wiki/Gare%20de%20Bassecourt"
  },
  {
    "pageid": 5450364,
    "ns": 0,
    "title": "Gare de Glovelier",
    "lat": 47.335238,
    "lon": 7.209343,
    "dist": 1907.1,
    "primary": "",
    "url": "https://fr.wikipedia.org/wiki/Gare%20de%20Glovelier"
  },
  {
    "pageid": 185701,
    "ns": 0,
    "title": "Glovelier",
    "lat": 47.334724,
    "lon": 7.204179,
    "dist": 2272.8,
    "primary": "",
    "url": "https://fr.wikipedia.org/wiki/Glovelier"
  },
  {
    "pageid": 11596155,
    "ns": 0,
    "title": "Tunnel du Mont-Russelin",
    "lat": 47.35472,
    "lon": 7.19583,
    "dist": 2875.7,
    "primary": "",
    "url": "https://fr.wikipedia.org/wiki/Tunnel%20du%20Mont-Russelin"
  },
  {
    "pageid": 2745226,
    "ns": 0,
    "title": "Montavon",
    "lat": 47.372194,
    "lon": 7.236444,
    "dist": 3126.1,
    "primary": "",
    "url": "https://fr.wikipedia.org/wiki/Montavon"
  },
  {
    "pageid": 149999,
    "ns": 0,
    "title": "Develier",
    "lat": 47.35,
    "lon": 7.28333333333,
    "dist": 4008.1,
    "primary": "",
    "url": "https://fr.wikipedia.org/wiki/Develier"
  },
  {
    "pageid": 3921153,
    "ns": 0,
    "title": "Sentinelle des Rangiers",
    "lat": 47.378221099617,
    "lon": 7.2111720318934,
    "dist": 4046.7,
    "primary": "",
    "url": "https://fr.wikipedia.org/wiki/Sentinelle%20des%20Rangiers"
  },
  {
    "pageid": 185682,
    "ns": 0,
    "title": "Courfaivre",
    "lat": 47.336108,
    "lon": 7.283347,
    "dist": 4064.4,
    "primary": "",
    "url": "https://fr.wikipedia.org/wiki/Courfaivre"
  },
  {
    "pageid": 41706,
    "ns": 0,
    "title": "Montmelon",
    "lat": 47.355472,
    "lon": 7.179028,
    "dist": 4091.5,
    "primary": "",
    "url": "https://fr.wikipedia.org/wiki/Montmelon"
  },
  {
    "pageid": 336054,
    "ns": 0,
    "title": "Autoroute A16 (Suisse)",
    "lat": 47.366692,
    "lon": 7.185168,
    "dist": 4241.3,
    "primary": "",
    "url": "https://fr.wikipedia.org/wiki/Autoroute%20A16%20%28Suisse%29"
  },
  {
    "pageid": 186602,
    "ns": 0,
    "title": "Undervelier",
    "lat": 47.304166,
    "lon": 7.225007,
    "dist": 4488.6,
    "primary": "",
    "url": "https://fr.wikipedia.org/wiki/Undervelier"
  },
  {
    "pageid": 3913156,
    "ns": 0,
    "title": "Col des Rangiers",
    "lat": 47.38472,
    "lon": 7.21917,
    "dist": 4574.4,
    "primary": "",
    "url": "https://fr.wikipedia.org/wiki/Col%20des%20Rangiers"
  },
  {
    "pageid": 5450135,
    "ns": 0,
    "title": "Gare de Courfaivre",
    "lat": 47.335151,
    "lon": 7.291273,
    "dist": 4670.4,
    "primary": "",
    "url": "https://fr.wikipedia.org/wiki/Gare%20de%20Courfaivre"
  },
  {
    "pageid": 172330,
    "ns": 0,
    "title": "Mus\u00e9e Chappuis-F\u00e4hndrich",
    "lat": 47.353,
    "lon": 7.292,
    "dist": 4710.7,
    "primary": "",
    "url": "https://fr.wikipedia.org/wiki/Mus%C3%A9e%20Chappuis-F%C3%A4hndrich"
  },
  {
    "pageid": 350706,
    "ns": 0,
    "title": "Les Ordons",
    "lat": 47.38778,
    "lon": 7.23139,
    "dist": 4830.3,
    "primary": "",
    "url": "https://fr.wikipedia.org/wiki/Les%20Ordons"
  },
  {
    "pageid": 186412,
    "ns": 0,
    "title": "Soulce",
    "lat": 47.304998,
    "lon": 7.271682,
    "dist": 5351.4,
    "primary": "",
    "url": "https://fr.wikipedia.org/wiki/Soulce"
  },
  {
    "pageid": 5503464,
    "ns": 0,
    "title": "Gare de Saint-Ursanne",
    "lat": 47.367681,
    "lon": 7.165872,
    "dist": 5536.3,
    "primary": "",
    "url": "https://fr.wikipedia.org/wiki/Gare%20de%20Saint-Ursanne"
  },
  {
    "pageid": 1541090,
    "ns": 0,
    "title": "Laboratoire souterrain du Mont-Terri",
    "lat": 47.376093,
    "lon": 7.167592,
    "dist": 5926.8,
    "primary": "",
    "url": "https://fr.wikipedia.org/wiki/Laboratoire%20souterrain%20du%20Mont-Terri"
  },
  {
    "pageid": 3567487,
    "ns": 0,
    "title": "Clos-du-Doubs",
    "lat": 47.365277,
    "lon": 7.155567,
    "dist": 6126.3,
    "primary": "",
    "url": "https://fr.wikipedia.org/wiki/Clos-du-Doubs"
  },
  {
    "pageid": 187665,
    "ns": 0,
    "title": "Montenol",
    "lat": 47.35175,
    "lon": 7.149833,
    "dist": 6154.9,
    "primary": "",
    "url": "https://fr.wikipedia.org/wiki/Montenol"
  },
  {
    "pageid": 41708,
    "ns": 0,
    "title": "Saint-Ursanne",
    "lat": 47.364454943223,
    "lon": 7.1539562283528,
    "dist": 6205.2,
    "primary": "",
    "url": "https://fr.wikipedia.org/wiki/Saint-Ursanne"
  },
  {
    "pageid": 13706707,
    "ns": 0,
    "title": "Ch\u00e2teau d'Asuel",
    "lat": 47.399154,
    "lon": 7.210003,
    "dist": 6292.7,
    "primary": "",
    "url": "https://fr.wikipedia.org/wiki/Ch%C3%A2teau%20d%27Asuel"
  },
  {
    "pageid": 1886221,
    "ns": 0,
    "title": "Outremont (canton du Jura)",
    "lat": 47.3775,
    "lon": 7.1625,
    "dist": 6328.8,
    "primary": "",
    "url": "https://fr.wikipedia.org/wiki/Outremont%20%28canton%20du%20Jura%29"
  },
  {
    "pageid": 140143,
    "ns": 0,
    "title": "Bourrignon",
    "lat": 47.4,
    "lon": 7.25,
    "dist": 6355.7,
    "primary": "",
    "url": "https://fr.wikipedia.org/wiki/Bourrignon"
  },
  {
    "pageid": 198826,
    "ns": 0,
    "title": "Reb\u00e9velier",
    "lat": 47.293057,
    "lon": 7.193072,
    "dist": 6372.2,
    "primary": "",
    "url": "https://fr.wikipedia.org/wiki/Reb%C3%A9velier"
  },
  {
    "pageid": 10705716,
    "ns": 0,
    "title": "Sceut",
    "lat": 47.319455,
    "lon": 7.154627,
    "dist": 6372.3,
    "primary": "",
    "url": "https://fr.wikipedia.org/wiki/Sceut"
  },
  {
    "pageid": 14529348,
    "ns": 0,
    "title": "Gorges du Pichoux",
    "lat": 47.287,
    "lon": 7.228,
    "dist": 6379.6,
    "primary": "",
    "url": "https://fr.wikipedia.org/wiki/Gorges%20du%20Pichoux"
  },
  {
    "pageid": 11077878,
    "ns": 0,
    "title": "Tunnel du Mont-Terri",
    "lat": 47.38101,
    "lon": 7.16506,
    "dist": 6413.7,
    "primary": "",
    "url": "https://fr.wikipedia.org/wiki/Tunnel%20du%20Mont-Terri"
  },
  {
    "pageid": 10706012,
    "ns": 0,
    "title": "Gare de Combe-Tabeillon",
    "lat": 47.313594,
    "lon": 7.157854,
    "dist": 6473.7,
    "primary": "",
    "url": "https://fr.wikipedia.org/wiki/Gare%20de%20Combe-Tabeillon"
  },
  {
    "pageid": 187641,
    "ns": 0,
    "title": "Asuel",
    "lat": 47.401194,
    "lon": 7.211333,
    "dist": 6489.3,
    "primary": "",
    "url": "https://fr.wikipedia.org/wiki/Asuel"
  },
  {
    "pageid": 140843,
    "ns": 0,
    "title": "Court\u00e9telle",
    "lat": 47.35,
    "lon": 7.31666666667,
    "dist": 6500.3,
    "primary": "",
    "url": "https://fr.wikipedia.org/wiki/Court%C3%A9telle"
  },
  {
    "pageid": 1371987,
    "ns": 0,
    "title": "Canton du Jura",
    "lat": 47.366666666667,
    "lon": 7.15,
    "dist": 6572.9,
    "primary": "",
    "url": "https://fr.wikipedia.org/wiki/Canton%20du%20Jura"
  },
  {
    "pageid": 5450124,
    "ns": 0,
    "title": "Gare de Court\u00e9telle",
    "lat": 47.342731,
    "lon": 7.318064,
    "dist": 6577.9,
    "primary": "",
    "url": "https://fr.wikipedia.org/wiki/Gare%20de%20Court%C3%A9telle"
  },
  {
    "pageid": 987276,
    "ns": 0,
    "title": "Mont Terri",
    "lat": 47.39124,
    "lon": 7.16122,
    "dist": 7392.5,
    "primary": "",
    "url": "https://fr.wikipedia.org/wiki/Mont%20Terri"
  },
  {
    "pageid": 186408,
    "ns": 0,
    "title": "Saulcy (Jura)",
    "lat": 47.302781,
    "lon": 7.154179,
    "dist": 7396.3,
    "primary": "",
    "url": "https://fr.wikipedia.org/wiki/Saulcy%20%28Jura%29"
  },
  {
    "pageid": 5670328,
    "ns": 0,
    "title": "Col de la Croix (Jura)",
    "lat": 47.37295,
    "lon": 7.1412,
    "dist": 7460.7,
    "primary": "",
    "url": "https://fr.wikipedia.org/wiki/Col%20de%20la%20Croix%20%28Jura%29"
  },
  {
    "pageid": 4101798,
    "ns": 0,
    "title": "Ch\u00e2teau de Pleujouse",
    "lat": 47.411528,
    "lon": 7.211722,
    "dist": 7607.5,
    "primary": "",
    "url": "https://fr.wikipedia.org/wiki/Ch%C3%A2teau%20de%20Pleujouse"
  },
  {
    "pageid": 198834,
    "ns": 0,
    "title": "Souboz",
    "lat": 47.275831,
    "lon": 7.244456,
    "dist": 7687.4,
    "primary": "",
    "url": "https://fr.wikipedia.org/wiki/Souboz"
  },
  {
    "pageid": 187668,
    "ns": 0,
    "title": "Pleujouse",
    "lat": 47.412506,
    "lon": 7.212516,
    "dist": 7703.4,
    "primary": "",
    "url": "https://fr.wikipedia.org/wiki/Pleujouse"
  },
  {
    "pageid": 198832,
    "ns": 0,
    "title": "Sornetan",
    "lat": 47.275556,
    "lon": 7.216677,
    "dist": 7722.4,
    "primary": "",
    "url": "https://fr.wikipedia.org/wiki/Sornetan"
  },
  {
    "pageid": 8460757,
    "ns": 0,
    "title": "Petit-Val",
    "lat": 47.275556,
    "lon": 7.216677,
    "dist": 7722.4,
    "primary": "",
    "url": "https://fr.wikipedia.org/wiki/Petit-Val"
  },
  {
    "pageid": 198823,
    "ns": 0,
    "title": "Monible",
    "lat": 47.277784,
    "lon": 7.201403,
    "dist": 7725.5,
    "primary": "",
    "url": "https://fr.wikipedia.org/wiki/Monible"
  },
  {
    "pageid": 183531,
    "ns": 0,
    "title": "District de Del\u00e9mont",
    "lat": 47.35,
    "lon": 7.3333,
    "dist": 7748.5,
    "primary": "",
    "url": "https://fr.wikipedia.org/wiki/District%20de%20Del%C3%A9mont"
  },
  {
    "pageid": 187660,
    "ns": 0,
    "title": "Fregi\u00e9court",
    "lat": 47.412872,
    "lon": 7.198749,
    "dist": 7993.1,
    "primary": "",
    "url": "https://fr.wikipedia.org/wiki/Fregi%C3%A9court"
  },
  {
    "pageid": 189446,
    "ns": 0,
    "title": "Ch\u00e2telat",
    "lat": 47.273616,
    "lon": 7.195844,
    "dist": 8294.1,
    "primary": "",
    "url": "https://fr.wikipedia.org/wiki/Ch%C3%A2telat"
  },
  {
    "pageid": 10650660,
    "ns": 0,
    "title": "Gare de Fondeval",
    "lat": 47.304913,
    "lon": 7.134884,
    "dist": 8454.6,
    "primary": "",
    "url": "https://fr.wikipedia.org/wiki/Gare%20de%20Fondeval"
  },
  {
    "pageid": 186406,
    "ns": 0,
    "title": "Rossemaison",
    "lat": 47.347227,
    "lon": 7.343064,
    "dist": 8464.9,
    "primary": "",
    "url": "https://fr.wikipedia.org/wiki/Rossemaison"
  },
  {
    "pageid": 186398,
    "ns": 0,
    "title": "Pleigne",
    "lat": 47.408336,
    "lon": 7.293073,
    "dist": 8522.2,
    "primary": "",
    "url": "https://fr.wikipedia.org/wiki/Pleigne"
  },
  {
    "pageid": 12124500,
    "ns": 0,
    "title": "Stade de la Blancherie",
    "lat": 47.360278,
    "lon": 7.341667,
    "dist": 8538.4,
    "primary": "",
    "url": "https://fr.wikipedia.org/wiki/Stade%20de%20la%20Blancherie"
  },
  {
    "pageid": 187652,
    "ns": 0,
    "title": "Cornol",
    "lat": 47.40695,
    "lon": 7.163904,
    "dist": 8592.7,
    "primary": "",
    "url": "https://fr.wikipedia.org/wiki/Cornol"
  },
  {
    "pageid": 185632,
    "ns": 0,
    "title": "Ch\u00e2tillon (Del\u00e9mont)",
    "lat": 47.329166,
    "lon": 7.34307,
    "dist": 8627.3,
    "primary": "",
    "url": "https://fr.wikipedia.org/wiki/Ch%C3%A2tillon%20%28Del%C3%A9mont%29"
  },
  {
    "pageid": 3011880,
    "ns": 0,
    "title": "Mus\u00e9e jurassien d'art et d'histoire",
    "lat": 47.364531365745,
    "lon": 7.3419344401935,
    "dist": 8668.1,
    "primary": "",
    "url": "https://fr.wikipedia.org/wiki/Mus%C3%A9e%20jurassien%20d%27art%20et%20d%27histoire"
  },
  {
    "pageid": 5617960,
    "ns": 0,
    "title": "Ch\u00e2teau de Del\u00e9mont",
    "lat": 47.363839587367,
    "lon": 7.3428755726404,
    "dist": 8717.2,
    "primary": "",
    "url": "https://fr.wikipedia.org/wiki/Ch%C3%A2teau%20de%20Del%C3%A9mont"
  },
  {
    "pageid": 1796182,
    "ns": 0,
    "title": "\u00c9pauvillers",
    "lat": 47.334972,
    "lon": 7.115139,
    "dist": 8776.8,
    "primary": "",
    "url": "https://fr.wikipedia.org/wiki/%C3%89pauvillers"
  },
  {
    "pageid": 376296,
    "ns": 0,
    "title": "Lucelle (Haut-Rhin)",
    "lat": 47.4231,
    "lon": 7.2478,
    "dist": 8850.6,
    "primary": "",
    "url": "https://fr.wikipedia.org/wiki/Lucelle%20%28Haut-Rhin%29"
  },
  {
    "pageid": 10395443,
    "ns": 0,
    "title": "Jardin de Montcroix",
    "lat": 47.3678,
    "lon": 7.34629,
    "dist": 9082.8,
    "primary": "",
    "url": "https://fr.wikipedia.org/wiki/Jardin%20de%20Montcroix"
  },
  {
    "pageid": 187648,
    "ns": 0,
    "title": "Charmoille (Jura)",
    "lat": 47.425006,
    "lon": 7.206963,
    "dist": 9147.1,
    "primary": "",
    "url": "https://fr.wikipedia.org/wiki/Charmoille%20%28Jura%29"
  },
  {
    "pageid": 5450102,
    "ns": 0,
    "title": "Gare de Del\u00e9mont",
    "lat": 47.361826,
    "lon": 7.350277,
    "dist": 9208.6,
    "primary": "",
    "url": "https://fr.wikipedia.org/wiki/Gare%20de%20Del%C3%A9mont"
  },
  {
    "pageid": 186384,
    "ns": 0,
    "title": "Mettembert",
    "lat": 47.400005,
    "lon": 7.322238,
    "dist": 9259,
    "primary": "",
    "url": "https://fr.wikipedia.org/wiki/Mettembert"
  },
  {
    "pageid": 187634,
    "ns": 0,
    "title": "Seleute",
    "lat": 47.366778,
    "lon": 7.11225,
    "dist": 9271.7,
    "primary": "",
    "url": "https://fr.wikipedia.org/wiki/Seleute"
  },
  {
    "pageid": 375022,
    "ns": 0,
    "title": "Montchaibeux",
    "lat": 47.33908,
    "lon": 7.3539,
    "dist": 9294.3,
    "primary": "",
    "url": "https://fr.wikipedia.org/wiki/Montchaibeux"
  },
  {
    "pageid": 1796199,
    "ns": 0,
    "title": "Del\u00e9mont",
    "lat": 47.3666666667,
    "lon": 7.35,
    "dist": 9316.5,
    "primary": "",
    "url": "https://fr.wikipedia.org/wiki/Del%C3%A9mont"
  },
  {
    "pageid": 3909926,
    "ns": 0,
    "title": "Miserez",
    "lat": 47.423722,
    "lon": 7.191167,
    "dist": 9317.2,
    "primary": "",
    "url": "https://fr.wikipedia.org/wiki/Miserez"
  },
  {
    "pageid": 354954,
    "ns": 0,
    "title": "Montagne du Moron",
    "lat": 47.26244,
    "lon": 7.26336,
    "dist": 9432.4,
    "primary": "",
    "url": "https://fr.wikipedia.org/wiki/Montagne%20du%20Moron"
  },
  {
    "pageid": 934800,
    "ns": 0,
    "title": "Tour de Moron",
    "lat": 47.2628,
    "lon": 7.26647,
    "dist": 9457.7,
    "primary": "",
    "url": "https://fr.wikipedia.org/wiki/Tour%20de%20Moron"
  },
  {
    "pageid": 9638799,
    "ns": 0,
    "title": "Archives Jura Br\u00fcschweiler",
    "lat": 47.365223,
    "lon": 7.353032,
    "dist": 9496.5,
    "primary": "",
    "url": "https://fr.wikipedia.org/wiki/Archives%20Jura%20Br%C3%BCschweiler"
  },
  {
    "pageid": 7627933,
    "ns": 0,
    "title": "Gare de Bollement",
    "lat": 47.297166,
    "lon": 7.123952,
    "dist": 9611.3,
    "primary": "",
    "url": "https://fr.wikipedia.org/wiki/Gare%20de%20Bollement"
  },
  {
    "pageid": 188591,
    "ns": 0,
    "title": "Saint-Brais",
    "lat": 47.306947,
    "lon": 7.113904,
    "dist": 9742.1,
    "primary": "",
    "url": "https://fr.wikipedia.org/wiki/Saint-Brais"
  },
  {
    "pageid": 186395,
    "ns": 0,
    "title": "Movelier",
    "lat": 47.41056,
    "lon": 7.318068,
    "dist": 9869.2,
    "primary": "",
    "url": "https://fr.wikipedia.org/wiki/Movelier"
  },
  {
    "pageid": 5617027,
    "ns": 0,
    "title": "Rotonde de Del\u00e9mont",
    "lat": 47.363465,
    "lon": 7.359211,
    "dist": 9904.8,
    "primary": "",
    "url": "https://fr.wikipedia.org/wiki/Rotonde%20de%20Del%C3%A9mont"
  },
  {
    "pageid": 10442506,
    "ns": 0,
    "title": "Siphon de Lucelle",
    "lat": 47.4294556,
    "lon": 7.2727111,
    "dist": 9976.5,
    "primary": "",
    "url": "https://fr.wikipedia.org/wiki/Siphon%20de%20Lucelle"
  },
  {
    "pageid": 188564,
    "ns": 0,
    "title": "Lajoux (Jura)",
    "lat": 47.280558,
    "lon": 7.137512,
    "dist": 9987.9,
    "primary": "",
    "url": "https://fr.wikipedia.org/wiki/Lajoux%20%28Jura%29"
  },
  {
    "pageid": 1236861,
    "ns": 0,
    "title": "Abbaye de Bellelay",
    "lat": 47.2639,
    "lon": 7.16872,
    "dist": 10095.3,
    "primary": "",
    "url": "https://fr.wikipedia.org/wiki/Abbaye%20de%20Bellelay"
  },
  {
    "pageid": 722283,
    "ns": 0,
    "title": "Ch\u00e2teau de Vorbourg",
    "lat": 47.37983,
    "lon": 7.3568,
    "dist": 10278.4,
    "primary": "",
    "url": "https://fr.wikipedia.org/wiki/Ch%C3%A2teau%20de%20Vorbourg"
  },
  {
    "pageid": 187663,
    "ns": 0,
    "title": "Mi\u00e9court",
    "lat": 47.429168,
    "lon": 7.176407,
    "dist": 10282.6,
    "primary": "",
    "url": "https://fr.wikipedia.org/wiki/Mi%C3%A9court"
  },
  {
    "pageid": 3567500,
    "ns": 0,
    "title": "La Baroche",
    "lat": 47.429168,
    "lon": 7.176407,
    "dist": 10282.6,
    "primary": "",
    "url": "https://fr.wikipedia.org/wiki/La%20Baroche"
  },
  {
    "pageid": 187654,
    "ns": 0,
    "title": "Courgenay (Jura)",
    "lat": 47.404171,
    "lon": 7.125023,
    "dist": 10377.6,
    "primary": "",
    "url": "https://fr.wikipedia.org/wiki/Courgenay%20%28Jura%29"
  },
  {
    "pageid": 5503472,
    "ns": 0,
    "title": "Gare de Courgenay",
    "lat": 47.40524,
    "lon": 7.124166,
    "dist": 10503.4,
    "primary": "",
    "url": "https://fr.wikipedia.org/wiki/Gare%20de%20Courgenay"
  },
  {
    "pageid": 189444,
    "ns": 0,
    "title": "Champoz",
    "lat": 47.258336,
    "lon": 7.300008,
    "dist": 10894.9,
    "primary": "",
    "url": "https://fr.wikipedia.org/wiki/Champoz"
  },
  {
    "pageid": 198824,
    "ns": 0,
    "title": "Perrefitte",
    "lat": 47.276386,
    "lon": 7.341684,
    "dist": 11269.2,
    "primary": "",
    "url": "https://fr.wikipedia.org/wiki/Perrefitte"
  },
  {
    "pageid": 13048389,
    "ns": 0,
    "title": "Gare d'Alle",
    "lat": 47.424203,
    "lon": 7.128453,
    "dist": 11756.9,
    "primary": "",
    "url": "https://fr.wikipedia.org/wiki/Gare%20d%27Alle"
  },
  {
    "pageid": 3525131,
    "ns": 0,
    "title": "Alle (Jura)",
    "lat": 47.427778,
    "lon": 7.13057,
    "dist": 11958.6,
    "primary": "",
    "url": "https://fr.wikipedia.org/wiki/Alle%20%28Jura%29"
  },
  {
    "pageid": 185690,
    "ns": 0,
    "title": "Ederswiler",
    "lat": 47.426389,
    "lon": 7.336123,
    "dist": 12087.9,
    "primary": "",
    "url": "https://fr.wikipedia.org/wiki/Ederswiler"
  },
  {
    "pageid": 188581,
    "ns": 0,
    "title": "Les Genevez",
    "lat": 47.256946,
    "lon": 7.130563,
    "dist": 12311.1,
    "primary": "",
    "url": "https://fr.wikipedia.org/wiki/Les%20Genevez"
  },
  {
    "pageid": 1068979,
    "ns": 0,
    "title": "Roggenburg (B\u00e2le-Campagne)",
    "lat": 47.433339,
    "lon": 7.333353,
    "dist": 12551.6,
    "primary": "",
    "url": "https://fr.wikipedia.org/wiki/Roggenburg%20%28B%C3%A2le-Campagne%29"
  },
  {
    "pageid": 185706,
    "ns": 0,
    "title": "Mervelier",
    "lat": 47.344444,
    "lon": 7.500011,
    "dist": 694.6,
    "primary": "",
    "url": "https://fr.wikipedia.org/wiki/Mervelier"
  },
  {
    "pageid": 185634,
    "ns": 0,
    "title": "Corban",
    "lat": 47.348052,
    "lon": 7.477783,
    "dist": 1063.5,
    "primary": "",
    "url": "https://fr.wikipedia.org/wiki/Corban"
  },
  {
    "pageid": 186609,
    "ns": 0,
    "title": "Vermes",
    "lat": 47.33028,
    "lon": 7.475005,
    "dist": 1964.8,
    "primary": "",
    "url": "https://fr.wikipedia.org/wiki/Vermes"
  },
  {
    "pageid": 186391,
    "ns": 0,
    "title": "Montsevelier",
    "lat": 47.3625,
    "lon": 7.508345,
    "dist": 2413.5,
    "primary": "",
    "url": "https://fr.wikipedia.org/wiki/Montsevelier"
  },
  {
    "pageid": 185678,
    "ns": 0,
    "title": "Courchapoix",
    "lat": 47.35,
    "lon": 7.456953,
    "dist": 2626,
    "primary": "",
    "url": "https://fr.wikipedia.org/wiki/Courchapoix"
  },
  {
    "pageid": 4529672,
    "ns": 0,
    "title": "Val Terbi (vall\u00e9e)",
    "lat": 47.3512,
    "lon": 7.45,
    "dist": 3166.5,
    "primary": "",
    "url": "https://fr.wikipedia.org/wiki/Val%20Terbi%20%28vall%C3%A9e%29"
  },
  {
    "pageid": 216516,
    "ns": 0,
    "title": "Grindel",
    "lat": 47.383333,
    "lon": 7.504175,
    "dist": 4451.2,
    "primary": "",
    "url": "https://fr.wikipedia.org/wiki/Grindel"
  },
  {
    "pageid": 756591,
    "ns": 0,
    "title": "B\u00e4rschwil",
    "lat": 47.383338,
    "lon": 7.473624,
    "dist": 4524.9,
    "primary": "",
    "url": "https://fr.wikipedia.org/wiki/B%C3%A4rschwil"
  },
  {
    "pageid": 5666652,
    "ns": 0,
    "title": "Ch\u00e2teau de Raymontpierre",
    "lat": 47.31518,
    "lon": 7.44861,
    "dist": 4541.1,
    "primary": "",
    "url": "https://fr.wikipedia.org/wiki/Ch%C3%A2teau%20de%20Raymontpierre"
  },
  {
    "pageid": 198813,
    "ns": 0,
    "title": "Elay",
    "lat": 47.306945,
    "lon": 7.516683,
    "dist": 4593.4,
    "primary": "",
    "url": "https://fr.wikipedia.org/wiki/Elay"
  },
  {
    "pageid": 198831,
    "ns": 0,
    "title": "La Scheulte",
    "lat": 47.337496,
    "lon": 7.552783,
    "dist": 4732.5,
    "primary": "",
    "url": "https://fr.wikipedia.org/wiki/La%20Scheulte"
  },
  {
    "pageid": 757084,
    "ns": 0,
    "title": "Erschwil",
    "lat": 47.373609,
    "lon": 7.543062,
    "dist": 5108,
    "primary": "",
    "url": "https://fr.wikipedia.org/wiki/Erschwil"
  },
  {
    "pageid": 11121465,
    "ns": 0,
    "title": "Observatoire astronomique jurassien",
    "lat": 47.352777777778,
    "lon": 7.4216666666667,
    "dist": 5291.7,
    "primary": "",
    "url": "https://fr.wikipedia.org/wiki/Observatoire%20astronomique%20jurassien"
  },
  {
    "pageid": 6046649,
    "ns": 0,
    "title": "Val Terbi (commune)",
    "lat": 47.349998,
    "lon": 7.411123,
    "dist": 6035.3,
    "primary": "",
    "url": "https://fr.wikipedia.org/wiki/Val%20Terbi%20%28commune%29"
  },
  {
    "pageid": 186611,
    "ns": 0,
    "title": "Vicques (Jura)",
    "lat": 47.349998,
    "lon": 7.411123,
    "dist": 6035.3,
    "primary": "",
    "url": "https://fr.wikipedia.org/wiki/Vicques%20%28Jura%29"
  },
  {
    "pageid": 375316,
    "ns": 0,
    "title": "Scheulte",
    "lat": 47.3421,
    "lon": 7.57111,
    "dist": 6056.7,
    "primary": "",
    "url": "https://fr.wikipedia.org/wiki/Scheulte"
  },
  {
    "pageid": 186403,
    "ns": 0,
    "title": "Rebeuvelier",
    "lat": 47.325003,
    "lon": 7.41529,
    "dist": 6082.6,
    "primary": "",
    "url": "https://fr.wikipedia.org/wiki/Rebeuvelier"
  },
  {
    "pageid": 5750338,
    "ns": 0,
    "title": "Mont Raimeux",
    "lat": 47.30719,
    "lon": 7.42888,
    "dist": 6232.3,
    "primary": "",
    "url": "https://fr.wikipedia.org/wiki/Mont%20Raimeux"
  },
  {
    "pageid": 757080,
    "ns": 0,
    "title": "B\u00fcsserach",
    "lat": 47.391663,
    "lon": 7.54029,
    "dist": 6448.5,
    "primary": "",
    "url": "https://fr.wikipedia.org/wiki/B%C3%BCsserach"
  },
  {
    "pageid": 1068985,
    "ns": 0,
    "title": "Wahlen (B\u00e2le-Campagne)",
    "lat": 47.40278,
    "lon": 7.516399,
    "dist": 6778.1,
    "primary": "",
    "url": "https://fr.wikipedia.org/wiki/Wahlen%20%28B%C3%A2le-Campagne%29"
  },
  {
    "pageid": 195675,
    "ns": 0,
    "title": "Corcelles (Berne)",
    "lat": 47.286113,
    "lon": 7.454182,
    "dist": 7038.5,
    "primary": "",
    "url": "https://fr.wikipedia.org/wiki/Corcelles%20%28Berne%29"
  },
  {
    "pageid": 11193828,
    "ns": 0,
    "title": "Abbaye de Beinwil",
    "lat": 47.362167,
    "lon": 7.587111,
    "dist": 7521.7,
    "primary": "",
    "url": "https://fr.wikipedia.org/wiki/Abbaye%20de%20Beinwil"
  },
  {
    "pageid": 216515,
    "ns": 0,
    "title": "Welschenrohr",
    "lat": 47.281662,
    "lon": 7.528899,
    "dist": 7538.5,
    "primary": "",
    "url": "https://fr.wikipedia.org/wiki/Welschenrohr"
  },
  {
    "pageid": 756607,
    "ns": 0,
    "title": "Beinwil (Soleure)",
    "lat": 47.363891,
    "lon": 7.587509,
    "dist": 7603,
    "primary": "",
    "url": "https://fr.wikipedia.org/wiki/Beinwil%20%28Soleure%29"
  },
  {
    "pageid": 195677,
    "ns": 0,
    "title": "Cr\u00e9mines",
    "lat": 47.283334,
    "lon": 7.443065,
    "dist": 7679,
    "primary": "",
    "url": "https://fr.wikipedia.org/wiki/Cr%C3%A9mines"
  },
  {
    "pageid": 11653218,
    "ns": 0,
    "title": "Courcelon",
    "lat": 47.36245,
    "lon": 7.392105,
    "dist": 7702.2,
    "primary": "",
    "url": "https://fr.wikipedia.org/wiki/Courcelon"
  },
  {
    "pageid": 1068981,
    "ns": 0,
    "title": "R\u00f6schenz",
    "lat": 47.416667,
    "lon": 7.483346,
    "dist": 8061.7,
    "primary": "",
    "url": "https://fr.wikipedia.org/wiki/R%C3%B6schenz"
  },
  {
    "pageid": 219086,
    "ns": 0,
    "title": "Laufon",
    "lat": 47.416668,
    "lon": 7.500015,
    "dist": 8072.2,
    "primary": "",
    "url": "https://fr.wikipedia.org/wiki/Laufon"
  },
  {
    "pageid": 556774,
    "ns": 0,
    "title": "District de Laufon",
    "lat": 47.4167,
    "lon": 7.5,
    "dist": 8075.7,
    "primary": "",
    "url": "https://fr.wikipedia.org/wiki/District%20de%20Laufon"
  },
  {
    "pageid": 1068957,
    "ns": 0,
    "title": "Liesberg",
    "lat": 47.405001,
    "lon": 7.430013,
    "dist": 8151.2,
    "primary": "",
    "url": "https://fr.wikipedia.org/wiki/Liesberg"
  },
  {
    "pageid": 11613643,
    "ns": 0,
    "title": "Tunnel de Choindez",
    "lat": 47.329337,
    "lon": 7.38459,
    "dist": 8175.1,
    "primary": "",
    "url": "https://fr.wikipedia.org/wiki/Tunnel%20de%20Choindez"
  },
  {
    "pageid": 216496,
    "ns": 0,
    "title": "District de Thierstein",
    "lat": 47.408333333333,
    "lon": 7.5444444444444,
    "dist": 8182.4,
    "primary": "",
    "url": "https://fr.wikipedia.org/wiki/District%20de%20Thierstein"
  },
  {
    "pageid": 757079,
    "ns": 0,
    "title": "Breitenbach (Soleure)",
    "lat": 47.408334,
    "lon": 7.54445,
    "dist": 8182.7,
    "primary": "",
    "url": "https://fr.wikipedia.org/wiki/Breitenbach%20%28Soleure%29"
  },
  {
    "pageid": 189450,
    "ns": 0,
    "title": "Grandval (Berne)",
    "lat": 47.284719,
    "lon": 7.426397,
    "dist": 8217.2,
    "primary": "",
    "url": "https://fr.wikipedia.org/wiki/Grandval%20%28Berne%29"
  },
  {
    "pageid": 14601622,
    "ns": 0,
    "title": "Welschenrohr-G\u00e4nsbrunnen",
    "lat": 47.270248,
    "lon": 7.493648,
    "dist": 8241.7,
    "primary": "",
    "url": "https://fr.wikipedia.org/wiki/Welschenrohr-G%C3%A4nsbrunnen"
  },
  {
    "pageid": 4921363,
    "ns": 0,
    "title": "Les Riedes-Dessus",
    "lat": 47.394590899931,
    "lon": 7.4082284741072,
    "dist": 8359.5,
    "primary": "",
    "url": "https://fr.wikipedia.org/wiki/Les%20Riedes-Dessus"
  },
  {
    "pageid": 5449281,
    "ns": 0,
    "title": "Gare de Laufon",
    "lat": 47.419371,
    "lon": 7.502809,
    "dist": 8391.8,
    "primary": "",
    "url": "https://fr.wikipedia.org/wiki/Gare%20de%20Laufon"
  },
  {
    "pageid": 4121166,
    "ns": 0,
    "title": "Choindez",
    "lat": 47.321196,
    "lon": 7.380667,
    "dist": 8689.2,
    "primary": "",
    "url": "https://fr.wikipedia.org/wiki/Choindez"
  },
  {
    "pageid": 757089,
    "ns": 0,
    "title": "Fehren",
    "lat": 47.396109,
    "lon": 7.580287,
    "dist": 8863.2,
    "primary": "",
    "url": "https://fr.wikipedia.org/wiki/Fehren"
  },
  {
    "pageid": 185683,
    "ns": 0,
    "title": "Courrendlin",
    "lat": 47.33833,
    "lon": 7.37266,
    "dist": 8926.3,
    "primary": "",
    "url": "https://fr.wikipedia.org/wiki/Courrendlin"
  },
  {
    "pageid": 185686,
    "ns": 0,
    "title": "Courroux",
    "lat": 47.36192,
    "lon": 7.37485,
    "dist": 8950.3,
    "primary": "",
    "url": "https://fr.wikipedia.org/wiki/Courroux"
  },
  {
    "pageid": 757105,
    "ns": 0,
    "title": "Meltingen",
    "lat": 47.388891,
    "lon": 7.59085,
    "dist": 9017.9,
    "primary": "",
    "url": "https://fr.wikipedia.org/wiki/Meltingen"
  },
  {
    "pageid": 757157,
    "ns": 0,
    "title": "G\u00e4nsbrunnen",
    "lat": 47.263892,
    "lon": 7.473625,
    "dist": 9038.8,
    "primary": "",
    "url": "https://fr.wikipedia.org/wiki/G%C3%A4nsbrunnen"
  },
  {
    "pageid": 195674,
    "ns": 0,
    "title": "Belprahon",
    "lat": 47.286109,
    "lon": 7.406953,
    "dist": 9048.5,
    "primary": "",
    "url": "https://fr.wikipedia.org/wiki/Belprahon"
  },
  {
    "pageid": 1068902,
    "ns": 0,
    "title": "Brislach",
    "lat": 47.416667,
    "lon": 7.550011,
    "dist": 9195.5,
    "primary": "",
    "url": "https://fr.wikipedia.org/wiki/Brislach"
  },
  {
    "pageid": 11596225,
    "ns": 0,
    "title": "Tunnel du Raimeux",
    "lat": 47.29361,
    "lon": 7.39333,
    "dist": 9262.8,
    "primary": "",
    "url": "https://fr.wikipedia.org/wiki/Tunnel%20du%20Raimeux"
  },
  {
    "pageid": 186607,
    "ns": 0,
    "title": "Vellerat",
    "lat": 47.320831,
    "lon": 7.372237,
    "dist": 9309.2,
    "primary": "",
    "url": "https://fr.wikipedia.org/wiki/Vellerat"
  },
  {
    "pageid": 757161,
    "ns": 0,
    "title": "Herbetswil",
    "lat": 47.297217,
    "lon": 7.593061,
    "dist": 9321.1,
    "primary": "",
    "url": "https://fr.wikipedia.org/wiki/Herbetswil"
  },
  {
    "pageid": 198827,
    "ns": 0,
    "title": "Roches (Berne)",
    "lat": 47.302776,
    "lon": 7.38334,
    "dist": 9325.2,
    "primary": "",
    "url": "https://fr.wikipedia.org/wiki/Roches%20%28Berne%29"
  },
  {
    "pageid": 2000022,
    "ns": 0,
    "title": "Balmberg",
    "lat": 47.2661,
    "lon": 7.5395,
    "dist": 9443.5,
    "primary": "",
    "url": "https://fr.wikipedia.org/wiki/Balmberg"
  },
  {
    "pageid": 757106,
    "ns": 0,
    "title": "Zullwil",
    "lat": 47.391665,
    "lon": 7.601401,
    "dist": 9852.8,
    "primary": "",
    "url": "https://fr.wikipedia.org/wiki/Zullwil"
  },
  {
    "pageid": 757149,
    "ns": 0,
    "title": "Aedermannsdorf",
    "lat": 47.306942,
    "lon": 7.611126,
    "dist": 9977.6,
    "primary": "",
    "url": "https://fr.wikipedia.org/wiki/Aedermannsdorf"
  },
  {
    "pageid": 116765,
    "ns": 0,
    "title": "Weissenstein",
    "lat": 47.25806,
    "lon": 7.52806,
    "dist": 9997.2,
    "primary": "",
    "url": "https://fr.wikipedia.org/wiki/Weissenstein"
  },
  {
    "pageid": 198821,
    "ns": 0,
    "title": "Eschert",
    "lat": 47.276393,
    "lon": 7.400007,
    "dist": 10194.9,
    "primary": "",
    "url": "https://fr.wikipedia.org/wiki/Eschert"
  },
  {
    "pageid": 5449269,
    "ns": 0,
    "title": "Gare de Zwingen",
    "lat": 47.433756,
    "lon": 7.5302,
    "dist": 10375.5,
    "primary": "",
    "url": "https://fr.wikipedia.org/wiki/Gare%20de%20Zwingen"
  },
  {
    "pageid": 1068991,
    "ns": 0,
    "title": "Zwingen",
    "lat": 47.43333,
    "lon": 7.533344,
    "dist": 10400.6,
    "primary": "",
    "url": "https://fr.wikipedia.org/wiki/Zwingen"
  },
  {
    "pageid": 3788373,
    "ns": 0,
    "title": "Soyhi\u00e8res",
    "lat": 47.393056,
    "lon": 7.37224,
    "dist": 10442.9,
    "primary": "",
    "url": "https://fr.wikipedia.org/wiki/Soyhi%C3%A8res"
  },
  {
    "pageid": 216520,
    "ns": 0,
    "title": "Kleinl\u00fctzel",
    "lat": 47.427781,
    "lon": 7.416676,
    "dist": 10826.7,
    "primary": "",
    "url": "https://fr.wikipedia.org/wiki/Kleinl%C3%BCtzel"
  },
  {
    "pageid": 13044869,
    "ns": 0,
    "title": "Gare de Moutier",
    "lat": 47.280634,
    "lon": 7.381643,
    "dist": 10858.1,
    "primary": "",
    "url": "https://fr.wikipedia.org/wiki/Gare%20de%20Moutier"
  },
  {
    "pageid": 547344,
    "ns": 0,
    "title": "Mouvement autonomiste jurassien",
    "lat": 47.28111,
    "lon": 7.38083,
    "dist": 10870.2,
    "primary": "",
    "url": "https://fr.wikipedia.org/wiki/Mouvement%20autonomiste%20jurassien"
  },
  {
    "pageid": 216521,
    "ns": 0,
    "title": "Nunningen",
    "lat": 47.394444,
    "lon": 7.619449,
    "dist": 11176.4,
    "primary": "",
    "url": "https://fr.wikipedia.org/wiki/Nunningen"
  },
  {
    "pageid": 7545340,
    "ns": 0,
    "title": "Blauenstein",
    "lat": 47.43154,
    "lon": 7.41633,
    "dist": 11199.9,
    "primary": "",
    "url": "https://fr.wikipedia.org/wiki/Blauenstein"
  },
  {
    "pageid": 391043,
    "ns": 0,
    "title": "Abbaye de Moutier-Grandval",
    "lat": 47.2806,
    "lon": 7.37194,
    "dist": 11424.8,
    "primary": "",
    "url": "https://fr.wikipedia.org/wiki/Abbaye%20de%20Moutier-Grandval"
  },
  {
    "pageid": 189431,
    "ns": 0,
    "title": "Moutier",
    "lat": 47.280553,
    "lon": 7.370847,
    "dist": 11492.7,
    "primary": "",
    "url": "https://fr.wikipedia.org/wiki/Moutier"
  },
  {
    "pageid": 17216757,
    "ns": 0,
    "title": "District de Moutier (Jura)",
    "lat": 47.278095441752,
    "lon": 7.3712249013286,
    "dist": 11641.5,
    "primary": "",
    "url": "https://fr.wikipedia.org/wiki/District%20de%20Moutier%20%28Jura%29"
  },
  {
    "pageid": 758369,
    "ns": 0,
    "title": "G\u00fcnsberg",
    "lat": 47.256943,
    "lon": 7.576113,
    "dist": 11655,
    "primary": "",
    "url": "https://fr.wikipedia.org/wiki/G%C3%BCnsberg"
  },
  {
    "pageid": 757095,
    "ns": 0,
    "title": "Himmelried",
    "lat": 47.422222,
    "lon": 7.598618,
    "dist": 11870,
    "primary": "",
    "url": "https://fr.wikipedia.org/wiki/Himmelried"
  },
  {
    "pageid": 757177,
    "ns": 0,
    "title": "Holderbank (Soleure)",
    "lat": 47.333335,
    "lon": 7.754177,
    "dist": 1250.2,
    "primary": "",
    "url": "https://fr.wikipedia.org/wiki/Holderbank%20%28Soleure%29"
  },
  {
    "pageid": 1958595,
    "ns": 0,
    "title": "Haut-Hauenstein",
    "lat": 47.35192,
    "lon": 7.76367,
    "dist": 1285,
    "primary": "",
    "url": "https://fr.wikipedia.org/wiki/Haut-Hauenstein"
  },
  {
    "pageid": 1070787,
    "ns": 0,
    "title": "Langenbruck",
    "lat": 47.349716,
    "lon": 7.769454,
    "dist": 1527.6,
    "primary": "",
    "url": "https://fr.wikipedia.org/wiki/Langenbruck"
  },
  {
    "pageid": 216513,
    "ns": 0,
    "title": "M\u00fcmliswil-Ramiswil",
    "lat": 47.341108,
    "lon": 7.703345,
    "dist": 3593.1,
    "primary": "",
    "url": "https://fr.wikipedia.org/wiki/M%C3%BCmliswil-Ramiswil"
  },
  {
    "pageid": 757122,
    "ns": 0,
    "title": "Oberbuchsiten",
    "lat": 47.311111,
    "lon": 7.766675,
    "dist": 3884.2,
    "primary": "",
    "url": "https://fr.wikipedia.org/wiki/Oberbuchsiten"
  },
  {
    "pageid": 215819,
    "ns": 0,
    "title": "Egerkingen",
    "lat": 47.322218,
    "lon": 7.794455,
    "dist": 4108.4,
    "primary": "",
    "url": "https://fr.wikipedia.org/wiki/Egerkingen"
  },
  {
    "pageid": 556787,
    "ns": 0,
    "title": "District de Waldenburg",
    "lat": 47.3833,
    "lon": 7.75,
    "dist": 4332.4,
    "primary": "",
    "url": "https://fr.wikipedia.org/wiki/District%20de%20Waldenburg"
  },
  {
    "pageid": 1070822,
    "ns": 0,
    "title": "Waldenburg (B\u00e2le-Campagne)",
    "lat": 47.383328,
    "lon": 7.75001,
    "dist": 4335.5,
    "primary": "",
    "url": "https://fr.wikipedia.org/wiki/Waldenburg%20%28B%C3%A2le-Campagne%29"
  },
  {
    "pageid": 8788792,
    "ns": 0,
    "title": "Hinteri Egg",
    "lat": 47.372583,
    "lon": 7.710667,
    "dist": 4358.5,
    "primary": "",
    "url": "https://fr.wikipedia.org/wiki/Hinteri%20Egg"
  },
  {
    "pageid": 1913377,
    "ns": 0,
    "title": "Belchenflue",
    "lat": 47.36278,
    "lon": 7.81056,
    "dist": 4947.2,
    "primary": "",
    "url": "https://fr.wikipedia.org/wiki/Belchenflue"
  },
  {
    "pageid": 216507,
    "ns": 0,
    "title": "Balsthal",
    "lat": 47.316663,
    "lon": 7.694455,
    "dist": 5244.1,
    "primary": "",
    "url": "https://fr.wikipedia.org/wiki/Balsthal"
  },
  {
    "pageid": 216494,
    "ns": 0,
    "title": "District de Thal",
    "lat": 47.316666666667,
    "lon": 7.6944444444444,
    "dist": 5244.5,
    "primary": "",
    "url": "https://fr.wikipedia.org/wiki/District%20de%20Thal"
  },
  {
    "pageid": 1070805,
    "ns": 0,
    "title": "Oberdorf (B\u00e2le-Campagne)",
    "lat": 47.39222,
    "lon": 7.7514,
    "dist": 5324,
    "primary": "",
    "url": "https://fr.wikipedia.org/wiki/Oberdorf%20%28B%C3%A2le-Campagne%29"
  },
  {
    "pageid": 757117,
    "ns": 0,
    "title": "Niederbuchsiten",
    "lat": 47.29722,
    "lon": 7.770834,
    "dist": 5453.2,
    "primary": "",
    "url": "https://fr.wikipedia.org/wiki/Niederbuchsiten"
  },
  {
    "pageid": 215825,
    "ns": 0,
    "title": "Neuendorf (Soleure)",
    "lat": 47.302771,
    "lon": 7.794458,
    "dist": 5674.5,
    "primary": "",
    "url": "https://fr.wikipedia.org/wiki/Neuendorf%20%28Soleure%29"
  },
  {
    "pageid": 7784612,
    "ns": 0,
    "title": "Ch\u00e2teau de Neu-Bechburg",
    "lat": 47.297222,
    "lon": 7.718611,
    "dist": 5773.8,
    "primary": "",
    "url": "https://fr.wikipedia.org/wiki/Ch%C3%A2teau%20de%20Neu-Bechburg"
  },
  {
    "pageid": 1070796,
    "ns": 0,
    "title": "Liedertswil",
    "lat": 47.3925,
    "lon": 7.719177,
    "dist": 5860.4,
    "primary": "",
    "url": "https://fr.wikipedia.org/wiki/Liedertswil"
  },
  {
    "pageid": 11615825,
    "ns": 0,
    "title": "Tunnel de Belchen",
    "lat": 47.365346,
    "lon": 7.825591,
    "dist": 6099.4,
    "primary": "",
    "url": "https://fr.wikipedia.org/wiki/Tunnel%20de%20Belchen"
  },
  {
    "pageid": 215822,
    "ns": 0,
    "title": "H\u00e4rkingen",
    "lat": 47.309721,
    "lon": 7.818057,
    "dist": 6365.6,
    "primary": "",
    "url": "https://fr.wikipedia.org/wiki/H%C3%A4rkingen"
  },
  {
    "pageid": 1070218,
    "ns": 0,
    "title": "Eptingen",
    "lat": 47.383327,
    "lon": 7.816674,
    "dist": 6588.8,
    "primary": "",
    "url": "https://fr.wikipedia.org/wiki/Eptingen"
  },
  {
    "pageid": 188000,
    "ns": 0,
    "title": "Bennwil",
    "lat": 47.399999,
    "lon": 7.783344,
    "dist": 6656.5,
    "primary": "",
    "url": "https://fr.wikipedia.org/wiki/Bennwil"
  },
  {
    "pageid": 368269,
    "ns": 0,
    "title": "Gunzgen",
    "lat": 47.316664,
    "lon": 7.829177,
    "dist": 6661,
    "primary": "",
    "url": "https://fr.wikipedia.org/wiki/Gunzgen"
  },
  {
    "pageid": 1070812,
    "ns": 0,
    "title": "Titterten",
    "lat": 47.399999,
    "lon": 7.716673,
    "dist": 6701,
    "primary": "",
    "url": "https://fr.wikipedia.org/wiki/Titterten"
  },
  {
    "pageid": 215816,
    "ns": 0,
    "title": "District de G\u00e4u",
    "lat": 47.288888888889,
    "lon": 7.7139,
    "dist": 6764.3,
    "primary": "",
    "url": "https://fr.wikipedia.org/wiki/District%20de%20G%C3%A4u"
  },
  {
    "pageid": 757135,
    "ns": 0,
    "title": "Oensingen",
    "lat": 47.288888,
    "lon": 7.7139,
    "dist": 6764.4,
    "primary": "",
    "url": "https://fr.wikipedia.org/wiki/Oensingen"
  },
  {
    "pageid": 757114,
    "ns": 0,
    "title": "Kestenholz",
    "lat": 47.283334,
    "lon": 7.754173,
    "dist": 6788.6,
    "primary": "",
    "url": "https://fr.wikipedia.org/wiki/Kestenholz"
  },
  {
    "pageid": 1264963,
    "ns": 0,
    "title": "Niederdorf (B\u00e2le-Campagne)",
    "lat": 47.408053,
    "lon": 7.753348,
    "dist": 7087,
    "primary": "",
    "url": "https://fr.wikipedia.org/wiki/Niederdorf%20%28B%C3%A2le-Campagne%29"
  },
  {
    "pageid": 740449,
    "ns": 0,
    "title": "H\u00e4gendorf",
    "lat": 47.334717,
    "lon": 7.844458,
    "dist": 7138.5,
    "primary": "",
    "url": "https://fr.wikipedia.org/wiki/H%C3%A4gendorf"
  },
  {
    "pageid": 1070809,
    "ns": 0,
    "title": "Reigoldswil",
    "lat": 47.398609,
    "lon": 7.691404,
    "dist": 7510.9,
    "primary": "",
    "url": "https://fr.wikipedia.org/wiki/Reigoldswil"
  },
  {
    "pageid": 1070790,
    "ns": 0,
    "title": "Lauwil",
    "lat": 47.39139,
    "lon": 7.67696,
    "dist": 7634.6,
    "primary": "",
    "url": "https://fr.wikipedia.org/wiki/Lauwil"
  },