[
  {
    "pageid": 188576,
    "ns": 0,
    "title": "Le Peuchapatte",
    "lat": 47.197227,
    "lon": 6.965289,
    "dist": 3680.2,
    "primary": "",
    "url": "https://fr.wikipedia.org/wiki/Le%20Peuchapatte"
  },
  {
    "pageid": 188577,
    "ns": 0,
    "title": "Les Bois",
    "lat": 47.1768,
    "lon": 6.9049,
    "dist": 5170.1,
    "primary": "",
    "url": "https://fr.wikipedia.org/wiki/Les%20Bois"
  },
  {
    "pageid": 11847701,
    "ns": 0,
    "title": "Montres Valgine",
    "lat": 47.211472,
    "lon": 7.001167,
    "dist": 5721.2,
    "primary": "",
    "url": "https://fr.wikipedia.org/wiki/Montres%20Valgine"
  },
  {
    "pageid": 11839599,
    "ns": 0,
    "title": "Richard Mille",
    "lat": 47.211472,
    "lon": 7.001167,
    "dist": 5721.2,
    "primary": "",
    "url": "https://fr.wikipedia.org/wiki/Richard%20Mille"
  },
  {
    "pageid": 188579,
    "ns": 0,
    "title": "Les Breuleux",
    "lat": 47.212501,
    "lon": 7.004175,
    "dist": 5919.4,
    "primary": "",
    "url": "https://fr.wikipedia.org/wiki/Les%20Breuleux"
  },
  {
    "pageid": 338998,
    "ns": 0,
    "title": "Chant du Gros",
    "lat": 47.225005,
    "lon": 6.956963,
    "dist": 6825.9,
    "primary": "",
    "url": "https://fr.wikipedia.org/wiki/Chant%20du%20Gros"
  },
  {
    "pageid": 188572,
    "ns": 0,
    "title": "Le Noirmont",
    "lat": 47.225005,
    "lon": 6.956963,
    "dist": 6825.9,
    "primary": "",
    "url": "https://fr.wikipedia.org/wiki/Le%20Noirmont"
  },
  {
    "pageid": 188561,
    "ns": 0,
    "title": "La Chaux-des-Breuleux",
    "lat": 47.223611,
    "lon": 7.029184,
    "dist": 7930.9,
    "primary": "",
    "url": "https://fr.wikipedia.org/wiki/La%20Chaux-des-Breuleux"
  },
  {
    "pageid": 1796150,
    "ns": 0,
    "title": "Muriaux",
    "lat": 47.247781,
    "lon": 6.979187,
    "dist": 9299.7,
    "primary": "",
    "url": "https://fr.wikipedia.org/wiki/Muriaux"
  },
  {
    "pageid": 8039503,
    "ns": 0,
    "title": "Parc naturel r\u00e9gional du Doubs",
    "lat": 47.2378,
    "lon": 7.0354,
    "dist": 9515.4,
    "primary": "",
    "url": "https://fr.wikipedia.org/wiki/Parc%20naturel%20r%C3%A9gional%20du%20Doubs"
  },
  {
    "pageid": 183539,
    "ns": 0,
    "title": "District des Franches-Montagnes",
    "lat": 47.25,
    "lon": 6.9833,
    "dist": 9571.5,
    "primary": "",
    "url": "https://fr.wikipedia.org/wiki/District%20des%20Franches-Montagnes"
  },
  {
    "pageid": 2464968,
    "ns": 0,
    "title": "\u00c9tang de la Gru\u00e8re",
    "lat": 47.23806,
    "lon": 7.04694,
    "dist": 10014.3,
    "primary": "",
    "url": "https://fr.wikipedia.org/wiki/%C3%89tang%20de%20la%20Gru%C3%A8re"
  },
  {
    "pageid": 2009791,
    "ns": 0,
    "title": "Ichertswil",
    "lat": 47.16,
    "lon": 7.499,
    "dist": 786.2,
    "primary": "",
    "url": "https://fr.wikipedia.org/wiki/Ichertswil"
  },
  {
    "pageid": 214452,
    "ns": 0,
    "title": "L\u00fcterkofen-Ichertswil",
    "lat": 47.162498,
    "lon": 7.505566,
    "dist": 1135.5,
    "primary": "",
    "url": "https://fr.wikipedia.org/wiki/L%C3%BCterkofen-Ichertswil"
  },
  {
    "pageid": 2009790,
    "ns": 0,
    "title": "L\u00fcterkofen",
    "lat": 47.1625,
    "lon": 7.5134,
    "dist": 1721.4,
    "primary": "",
    "url": "https://fr.wikipedia.org/wiki/L%C3%BCterkofen"
  },
  {
    "pageid": 214471,
    "ns": 0,
    "title": "Tscheppach",
    "lat": 47.14722,
    "lon": 7.479179,
    "dist": 2096.7,
    "primary": "",
    "url": "https://fr.wikipedia.org/wiki/Tscheppach"
  },
  {
    "pageid": 214253,
    "ns": 0,
    "title": "Br\u00fcgglen",
    "lat": 47.144441,
    "lon": 7.497225,
    "dist": 2265.7,
    "primary": "",
    "url": "https://fr.wikipedia.org/wiki/Br%C3%BCgglen"
  },
  {
    "pageid": 214264,
    "ns": 0,
    "title": "K\u00fcttigkofen",
    "lat": 47.152777,
    "lon": 7.516669,
    "dist": 2341.2,
    "primary": "",
    "url": "https://fr.wikipedia.org/wiki/K%C3%BCttigkofen"
  },
  {
    "pageid": 214459,
    "ns": 0,
    "title": "Nennigkofen",
    "lat": 47.187501,
    "lon": 7.494448,
    "dist": 2589.9,
    "primary": "",
    "url": "https://fr.wikipedia.org/wiki/Nennigkofen"
  },
  {
    "pageid": 10194434,
    "ns": 0,
    "title": "Lohn (Soleure)",
    "lat": 47.1692,
    "lon": 7.5243,
    "dist": 2590,
    "primary": "",
    "url": "https://fr.wikipedia.org/wiki/Lohn%20%28Soleure%29"
  },
  {
    "pageid": 782401,
    "ns": 0,
    "title": "Lohn-Ammannsegg",
    "lat": 47.169447,
    "lon": 7.525003,
    "dist": 2647.7,
    "primary": "",
    "url": "https://fr.wikipedia.org/wiki/Lohn-Ammannsegg"
  },
  {
    "pageid": 7648544,
    "ns": 0,
    "title": "Buchegg",
    "lat": 47.143056,
    "lon": 7.512502,
    "dist": 2880.4,
    "primary": "",
    "url": "https://fr.wikipedia.org/wiki/Buchegg"
  },
  {
    "pageid": 214268,
    "ns": 0,
    "title": "Kyburg-Buchegg",
    "lat": 47.143056,
    "lon": 7.512502,
    "dist": 2880.4,
    "primary": "",
    "url": "https://fr.wikipedia.org/wiki/Kyburg-Buchegg"
  },
  {
    "pageid": 6676397,
    "ns": 0,
    "title": "L\u00fcsslingen-Nennigkofen",
    "lat": 47.190277,
    "lon": 7.501392,
    "dist": 2993,
    "primary": "",
    "url": "https://fr.wikipedia.org/wiki/L%C3%BCsslingen-Nennigkofen"
  },
  {
    "pageid": 214447,
    "ns": 0,
    "title": "L\u00fcsslingen",
    "lat": 47.190277,
    "lon": 7.501392,
    "dist": 2993,
    "primary": "",
    "url": "https://fr.wikipedia.org/wiki/L%C3%BCsslingen"
  },
  {
    "pageid": 214244,
    "ns": 0,
    "title": "Bibern (Soleure)",
    "lat": 47.147225,
    "lon": 7.458348,
    "dist": 3105,
    "primary": "",
    "url": "https://fr.wikipedia.org/wiki/Bibern%20%28Soleure%29"
  },
  {
    "pageid": 214232,
    "ns": 0,
    "title": "Hessigkofen",
    "lat": 47.141664,
    "lon": 7.466677,
    "dist": 3112,
    "primary": "",
    "url": "https://fr.wikipedia.org/wiki/Hessigkofen"
  },
  {
    "pageid": 214238,
    "ns": 0,
    "title": "M\u00fchledorf (Soleure)",
    "lat": 47.136112,
    "lon": 7.476402,
    "dist": 3322.3,
    "primary": "",
    "url": "https://fr.wikipedia.org/wiki/M%C3%BChledorf%20%28Soleure%29"
  },
  {
    "pageid": 11186065,
    "ns": 0,
    "title": "L\u00e4nggrien",
    "lat": 47.19472,
    "lon": 7.48333,
    "dist": 3424.7,
    "primary": "",
    "url": "https://fr.wikipedia.org/wiki/L%C3%A4nggrien"
  },
  {
    "pageid": 10196075,
    "ns": 0,
    "title": "Ammannsegg",
    "lat": 47.1732,
    "lon": 7.5364,
    "dist": 3585.6,
    "primary": "",
    "url": "https://fr.wikipedia.org/wiki/Ammannsegg"
  },
  {
    "pageid": 214241,
    "ns": 0,
    "title": "Aetingen",
    "lat": 47.133328,
    "lon": 7.505569,
    "dist": 3625.1,
    "primary": "",
    "url": "https://fr.wikipedia.org/wiki/Aetingen"
  },
  {
    "pageid": 214480,
    "ns": 0,
    "title": "District de Bucheggberg",
    "lat": 47.133333333333,
    "lon": 7.4666666666667,
    "dist": 3901,
    "primary": "",
    "url": "https://fr.wikipedia.org/wiki/District%20de%20Bucheggberg"
  },
  {
    "pageid": 214230,
    "ns": 0,
    "title": "Aetigkofen",
    "lat": 47.126391,
    "lon": 7.466669,
    "dist": 4597.5,
    "primary": "",
    "url": "https://fr.wikipedia.org/wiki/Aetigkofen"
  },
  {
    "pageid": 214472,
    "ns": 0,
    "title": "Unterramsern",
    "lat": 47.12,
    "lon": 7.483335,
    "dist": 4962.8,
    "primary": "",
    "url": "https://fr.wikipedia.org/wiki/Unterramsern"
  },
  {
    "pageid": 10143976,
    "ns": 0,
    "title": "G\u00e4chliwil",
    "lat": 47.1287,
    "lon": 7.4481,
    "dist": 5111.9,
    "primary": "",
    "url": "https://fr.wikipedia.org/wiki/G%C3%A4chliwil"
  },
  {
    "pageid": 214258,
    "ns": 0,
    "title": "Gossliwil",
    "lat": 47.137503,
    "lon": 7.434735,
    "dist": 5184.3,
    "primary": "",
    "url": "https://fr.wikipedia.org/wiki/Gossliwil"
  },
  {
    "pageid": 215222,
    "ns": 0,
    "title": "Selzach",
    "lat": 47.205557,
    "lon": 7.455571,
    "dist": 5299.8,
    "primary": "",
    "url": "https://fr.wikipedia.org/wiki/Selzach"
  },
  {
    "pageid": 8076312,
    "ns": 0,
    "title": "Village m\u00e9di\u00e9val d'Altreu",
    "lat": 47.205557,
    "lon": 7.455571,
    "dist": 5299.8,
    "primary": "",
    "url": "https://fr.wikipedia.org/wiki/Village%20m%C3%A9di%C3%A9val%20d%27Altreu"
  },
  {
    "pageid": 782360,
    "ns": 0,
    "title": "Biberist",
    "lat": 47.183053,
    "lon": 7.558614,
    "dist": 5532.6,
    "primary": "",
    "url": "https://fr.wikipedia.org/wiki/Biberist"
  },
  {
    "pageid": 758341,
    "ns": 0,
    "title": "Bellach",
    "lat": 47.215274,
    "lon": 7.500008,
    "dist": 5706,
    "primary": "",
    "url": "https://fr.wikipedia.org/wiki/Bellach"
  },
  {
    "pageid": 8745959,
    "ns": 0,
    "title": "Mus\u00e9e national des ordinateurs et de la technique ENTER",
    "lat": 47.2033,
    "lon": 7.54168,
    "dist": 5792.7,
    "primary": "",
    "url": "https://fr.wikipedia.org/wiki/Mus%C3%A9e%20national%20des%20ordinateurs%20et%20de%20la%20technique%20ENTER"
  },
  {
    "pageid": 1396596,
    "ns": 0,
    "title": "Biblioth\u00e8que centrale de Soleure",
    "lat": 47.2097,
    "lon": 7.52972,
    "dist": 5838.8,
    "primary": "",
    "url": "https://fr.wikipedia.org/wiki/Biblioth%C3%A8que%20centrale%20de%20Soleure"
  },
  {
    "pageid": 214464,
    "ns": 0,
    "title": "Oberramsern",
    "lat": 47.115274,
    "lon": 7.462513,
    "dist": 5860.4,
    "primary": "",
    "url": "https://fr.wikipedia.org/wiki/Oberramsern"
  },
  {
    "pageid": 11821274,
    "ns": 0,
    "title": "Banque Baloise",
    "lat": 47.208919,
    "lon": 7.533856,
    "dist": 5929.5,
    "primary": "",
    "url": "https://fr.wikipedia.org/wiki/Banque%20Baloise"
  },
  {
    "pageid": 9368791,
    "ns": 0,
    "title": "A\u00e9rodrome de Granges",
    "lat": 47.181388888889,
    "lon": 7.4163888888889,
    "dist": 5935,
    "primary": "",
    "url": "https://fr.wikipedia.org/wiki/A%C3%A9rodrome%20de%20Granges"
  },
  {
    "pageid": 14684850,
    "ns": 0,
    "title": "Gare de Soleure",
    "lat": 47.204405659541,
    "lon": 7.5427889576242,
    "dist": 5940.3,
    "primary": "",
    "url": "https://fr.wikipedia.org/wiki/Gare%20de%20Soleure"
  },
  {
    "pageid": 13253059,
    "ns": 0,
    "title": "Kantonales Kulturzentrum Palais Besenval",
    "lat": 47.206769,
    "lon": 7.538812,
    "dist": 5951.9,
    "primary": "",
    "url": "https://fr.wikipedia.org/wiki/Kantonales%20Kulturzentrum%20Palais%20Besenval"
  },
  {
    "pageid": 13250170,
    "ns": 0,
    "title": "Palais Besenval",
    "lat": 47.206769,
    "lon": 7.538812,
    "dist": 5951.9,
    "primary": "",
    "url": "https://fr.wikipedia.org/wiki/Palais%20Besenval"
  },
  {
    "pageid": 214503,
    "ns": 0,
    "title": "District de Soleure",
    "lat": 47.208331,
    "lon": 7.537513,
    "dist": 6032.5,
    "primary": "",
    "url": "https://fr.wikipedia.org/wiki/District%20de%20Soleure"
  },
  {
    "pageid": 182045,
    "ns": 0,
    "title": "Soleure",
    "lat": 47.208331,
    "lon": 7.537513,
    "dist": 6032.5,
    "primary": "",
    "url": "https://fr.wikipedia.org/wiki/Soleure"
  },
  {
    "pageid": 2978559,
    "ns": 0,
    "title": "Cath\u00e9drale Saint-Ours-et-Saint-Victor de Soleure",
    "lat": 47.208333,
    "lon": 7.539444,
    "dist": 6119.2,
    "primary": "",
    "url": "https://fr.wikipedia.org/wiki/Cath%C3%A9drale%20Saint-Ours-et-Saint-Victor%20de%20Soleure"
  },
  {
    "pageid": 6472996,
    "ns": 0,
    "title": "Mus\u00e9e d'Art de Soleure",
    "lat": 47.210278,
    "lon": 7.5375,
    "dist": 6208.7,
    "primary": "",
    "url": "https://fr.wikipedia.org/wiki/Mus%C3%A9e%20d%27Art%20de%20Soleure"
  },
  {
    "pageid": 214454,
    "ns": 0,
    "title": "L\u00fcterswil-G\u00e4chliwil",
    "lat": 47.120836,
    "lon": 7.438901,
    "dist": 6229.5,
    "primary": "",
    "url": "https://fr.wikipedia.org/wiki/L%C3%BCterswil-G%C3%A4chliwil"
  },
  {
    "pageid": 10143985,
    "ns": 0,
    "title": "L\u00fcterswil",
    "lat": 47.12077,
    "lon": 7.43841,
    "dist": 6258.6,
    "primary": "",
    "url": "https://fr.wikipedia.org/wiki/L%C3%BCterswil"
  },
  {
    "pageid": 12333728,
    "ns": 0,
    "title": "Ch\u00e2teau Vigier",
    "lat": 47.212408,
    "lon": 7.534049,
    "dist": 6265,
    "primary": "",
    "url": "https://fr.wikipedia.org/wiki/Ch%C3%A2teau%20Vigier"
  },
  {
    "pageid": 782372,
    "ns": 0,
    "title": "Gerlafingen",
    "lat": 47.172225,
    "lon": 7.573891,
    "dist": 6342.7,
    "primary": "",
    "url": "https://fr.wikipedia.org/wiki/Gerlafingen"
  },
  {
    "pageid": 10144018,
    "ns": 0,
    "title": "Graben\u00f6li",
    "lat": 47.1239,
    "lon": 7.4291,
    "dist": 6480.2,
    "primary": "",
    "url": "https://fr.wikipedia.org/wiki/Graben%C3%B6li"
  },
  {
    "pageid": 565077,
    "ns": 0,
    "title": "Langendorf",
    "lat": 47.220833,
    "lon": 7.514458,
    "dist": 6531.1,
    "primary": "",
    "url": "https://fr.wikipedia.org/wiki/Langendorf"
  },
  {
    "pageid": 758412,
    "ns": 0,
    "title": "Lommiswil",
    "lat": 47.221942,
    "lon": 7.471116,
    "dist": 6575.1,
    "primary": "",
    "url": "https://fr.wikipedia.org/wiki/Lommiswil"
  },
  {
    "pageid": 215193,
    "ns": 0,
    "title": "B\u00e2che (Soleure)",
    "lat": 47.204163,
    "lon": 7.425003,
    "dist": 6657.8,
    "primary": "",
    "url": "https://fr.wikipedia.org/wiki/B%C3%A2che%20%28Soleure%29"
  },
  {
    "pageid": 8326010,
    "ns": 0,
    "title": "V\u00e9lodrome Suisse",
    "lat": 47.185321,
    "lon": 7.405519,
    "dist": 6854.7,
    "primary": "",
    "url": "https://fr.wikipedia.org/wiki/V%C3%A9lodrome%20Suisse"
  },
  {
    "pageid": 216527,
    "ns": 0,
    "title": "Zuchwil",
    "lat": 47.205557,
    "lon": 7.559734,
    "dist": 6938.8,
    "primary": "",
    "url": "https://fr.wikipedia.org/wiki/Zuchwil"
  },
  {
    "pageid": 216497,
    "ns": 0,
    "title": "District de Wasseramt",
    "lat": 47.166666666667,
    "lon": 7.5833333333333,
    "dist": 7000.8,
    "primary": "",
    "url": "https://fr.wikipedia.org/wiki/District%20de%20Wasseramt"
  },
  {
    "pageid": 782415,
    "ns": 0,
    "title": "Obergerlafingen",
    "lat": 47.161114,
    "lon": 7.583345,
    "dist": 7006.4,
    "primary": "",
    "url": "https://fr.wikipedia.org/wiki/Obergerlafingen"
  },
  {
    "pageid": 758437,
    "ns": 0,
    "title": "Oberdorf (Soleure)",
    "lat": 47.231948,
    "lon": 7.504174,
    "dist": 7585.1,
    "primary": "",
    "url": "https://fr.wikipedia.org/wiki/Oberdorf%20%28Soleure%29"
  },
  {
    "pageid": 214247,
    "ns": 0,
    "title": "Biezwil",
    "lat": 47.115275,
    "lon": 7.418069,
    "dist": 7747.5,
    "primary": "",
    "url": "https://fr.wikipedia.org/wiki/Biezwil"
  },
  {
    "pageid": 782425,
    "ns": 0,
    "title": "Recherswil",
    "lat": 47.163888,
    "lon": 7.594457,
    "dist": 7837.3,
    "primary": "",
    "url": "https://fr.wikipedia.org/wiki/Recherswil"
  },
  {
    "pageid": 215210,
    "ns": 0,
    "title": "Granges (Soleure)",
    "lat": 47.193056,
    "lon": 7.395844,
    "dist": 7854.6,
    "primary": "",
    "url": "https://fr.wikipedia.org/wiki/Granges%20%28Soleure%29"
  },
  {
    "pageid": 758463,
    "ns": 0,
    "title": "R\u00fcttenen",
    "lat": 47.230554,
    "lon": 7.529737,
    "dist": 7928.6,
    "primary": "",
    "url": "https://fr.wikipedia.org/wiki/R%C3%BCttenen"
  },
  {
    "pageid": 758359,
    "ns": 0,
    "title": "Feldbrunnen-Sankt Niklaus",
    "lat": 47.220834,
    "lon": 7.55557,
    "dist": 7963.4,
    "primary": "",
    "url": "https://fr.wikipedia.org/wiki/Feldbrunnen-Sankt%20Niklaus"
  },
  {
    "pageid": 15736008,
    "ns": 0,
    "title": "Ch\u00e2teau de Waldegg",
    "lat": 47.220834,
    "lon": 7.55557,
    "dist": 7963.4,
    "primary": "",
    "url": "https://fr.wikipedia.org/wiki/Ch%C3%A2teau%20de%20Waldegg"
  },
  {
    "pageid": 214242,
    "ns": 0,
    "title": "Balm bei Messen",
    "lat": 47.104168,
    "lon": 7.431958,
    "dist": 8036,
    "primary": "",
    "url": "https://fr.wikipedia.org/wiki/Balm%20bei%20Messen"
  },
  {
    "pageid": 216524,
    "ns": 0,
    "title": "Derendingen",
    "lat": 47.201106,
    "lon": 7.582503,
    "dist": 8046.7,
    "primary": "",
    "url": "https://fr.wikipedia.org/wiki/Derendingen"
  },
  {
    "pageid": 216526,
    "ns": 0,
    "title": "Kriegstetten",
    "lat": 47.174999,
    "lon": 7.598618,
    "dist": 8236.6,
    "primary": "",
    "url": "https://fr.wikipedia.org/wiki/Kriegstetten"
  },
  {
    "pageid": 215748,
    "ns": 0,
    "title": "District de Lebern",
    "lat": 47.183333333333,
    "lon": 7.3833333333333,
    "dist": 8392.7,
    "primary": "",
    "url": "https://fr.wikipedia.org/wiki/District%20de%20Lebern"
  },
  {
    "pageid": 214256,
    "ns": 0,
    "title": "Brunnenthal (Soleure)",
    "lat": 47.088891,
    "lon": 7.469455,
    "dist": 8543.7,
    "primary": "",
    "url": "https://fr.wikipedia.org/wiki/Brunnenthal%20%28Soleure%29"
  },
  {
    "pageid": 2349958,
    "ns": 0,
    "title": "Emme (rivi\u00e8re)",
    "lat": 47.2189,
    "lon": 7.57139,
    "dist": 8596.1,
    "primary": "",
    "url": "https://fr.wikipedia.org/wiki/Emme%20%28rivi%C3%A8re%29"
  },
  {
    "pageid": 782377,
    "ns": 0,
    "title": "Halten",
    "lat": 47.170836,
    "lon": 7.604172,
    "dist": 8601.4,
    "primary": "",
    "url": "https://fr.wikipedia.org/wiki/Halten"
  },
  {
    "pageid": 214457,
    "ns": 0,
    "title": "Messen",
    "lat": 47.091665,
    "lon": 7.44862,
    "dist": 8688.3,
    "primary": "",
    "url": "https://fr.wikipedia.org/wiki/Messen"
  },
  {
    "pageid": 782421,
    "ns": 0,
    "title": "Oekingen",
    "lat": 47.18055,
    "lon": 7.604175,
    "dist": 8757.9,
    "primary": "",
    "url": "https://fr.wikipedia.org/wiki/Oekingen"
  },
  {
    "pageid": 4710705,
    "ns": 0,
    "title": "Mus\u00e9e Gutenberg (Fribourg)",
    "lat": 47.196973055556,
    "lon": 7.5964530555556,
    "dist": 8771.2,
    "primary": "",
    "url": "https://fr.wikipedia.org/wiki/Mus%C3%A9e%20Gutenberg%20%28Fribourg%29"
  },
  {
    "pageid": 8484407,
    "ns": 0,
    "title": "Tunnel du Weissenstein",
    "lat": 47.246496,
    "lon": 7.484286,
    "dist": 9148.3,
    "primary": "",
    "url": "https://fr.wikipedia.org/wiki/Tunnel%20du%20Weissenstein"
  },
  {
    "pageid": 8788933,
    "ns": 0,
    "title": "Hasenmatt",
    "lat": 47.24217,
    "lon": 7.45093,
    "dist": 9163.1,
    "primary": "",
    "url": "https://fr.wikipedia.org/wiki/Hasenmatt"
  },
  {
    "pageid": 758450,
    "ns": 0,
    "title": "Riedholz",
    "lat": 47.230274,
    "lon": 7.568069,
    "dist": 9372.1,
    "primary": "",
    "url": "https://fr.wikipedia.org/wiki/Riedholz"
  },
  {
    "pageid": 782407,
    "ns": 0,
    "title": "Luterbach",
    "lat": 47.21972,
    "lon": 7.586117,
    "dist": 9476.2,
    "primary": "",
    "url": "https://fr.wikipedia.org/wiki/Luterbach"
  },
  {
    "pageid": 214468,
    "ns": 0,
    "title": "Schnottwil",
    "lat": 47.111111,
    "lon": 7.390284,
    "dist": 9634.9,
    "primary": "",
    "url": "https://fr.wikipedia.org/wiki/Schnottwil"
  },
  {
    "pageid": 10940468,
    "ns": 0,
    "title": "Nidlenloch",
    "lat": 47.251666666667,
    "lon": 7.4844444444444,
    "dist": 9721.9,
    "primary": "",
    "url": "https://fr.wikipedia.org/wiki/Nidlenloch"
  },
  {
    "pageid": 782493,
    "ns": 0,
    "title": "Subingen",
    "lat": 47.19694,
    "lon": 7.615285,
    "dist": 10082.9,
    "primary": "",
    "url": "https://fr.wikipedia.org/wiki/Subingen"
  },
  {
    "pageid": 4193253,
    "ns": 0,
    "title": "Barrage de r\u00e9gulation de Flumenthal",
    "lat": 47.22925,
    "lon": 7.590083,
    "dist": 10410.1,
    "primary": "",
    "url": "https://fr.wikipedia.org/wiki/Barrage%20de%20r%C3%A9gulation%20de%20Flumenthal"
  },
  {
    "pageid": 758312,
    "ns": 0,
    "title": "Balm bei G\u00fcnsberg",
    "lat": 47.252781,
    "lon": 7.558071,
    "dist": 11069.5,
    "primary": "",
    "url": "https://fr.wikipedia.org/wiki/Balm%20bei%20G%C3%BCnsberg"
  },
  {
    "pageid": 379017,
    "ns": 0,
    "title": "Attiswil",
    "lat": 47.233328,
    "lon": 7.600007,
    "dist": 11266.2,
    "primary": "",
    "url": "https://fr.wikipedia.org/wiki/Attiswil"
  },
  {
    "pageid": 758424,
    "ns": 0,
    "title": "Niederwil (Soleure)",
    "lat": 47.25139,
    "lon": 7.571396,
    "dist": 11435.1,
    "primary": "",
    "url": "https://fr.wikipedia.org/wiki/Niederwil%20%28Soleure%29"
  },
  {
    "pageid": 215196,
    "ns": 0,
    "title": "Flumenthal",
    "lat": 47.237495,
    "lon": 7.59862,
    "dist": 11512,
    "primary": "",
    "url": "https://fr.wikipedia.org/wiki/Flumenthal"
  },
  {
    "pageid": 758390,
    "ns": 0,
    "title": "Hubersdorf",
    "lat": 47.243334,
    "lon": 7.590568,
    "dist": 11574.3,
    "primary": "",
    "url": "https://fr.wikipedia.org/wiki/Hubersdorf"
  },
  {
    "pageid": 758408,
    "ns": 0,
    "title": "Kammersrohr",
    "lat": 47.253611,
    "lon": 7.593345,
    "dist": 12591.3,
    "primary": "",
    "url": "https://fr.wikipedia.org/wiki/Kammersrohr"
  },
  {
    "pageid": 8693072,
    "ns": 0,
    "title": "Aeschi\u2013Burg\u00e4schisee Ost",
    "lat": 47.1687,
    "lon": 7.67236,
    "dist": 5949.2,
    "primary": "",
    "url": "https://fr.wikipedia.org/wiki/Aeschi%E2%80%93Burg%C3%A4schisee%20Ost"
  },
  {
    "pageid": 8693140,
    "ns": 0,
    "title": "Lac de Burg\u00e4schi",
    "lat": 47.1694,
    "lon": 7.6683,
    "dist": 6261.6,
    "primary": "",
    "url": "https://fr.wikipedia.org/wiki/Lac%20de%20Burg%C3%A4schi"
  },
  {
    "pageid": 782354,
    "ns": 0,
    "title": "Aeschi (Soleure)",
    "lat": 47.181945,
    "lon": 7.662505,
    "dist": 6954.7,
    "primary": "",
    "url": "https://fr.wikipedia.org/wiki/Aeschi%20%28Soleure%29"
  },
  {
    "pageid": 782364,
    "ns": 0,
    "title": "Bolken",
    "lat": 47.193051,
    "lon": 7.663897,
    "dist": 7302.4,
    "primary": "",
    "url": "https://fr.wikipedia.org/wiki/Bolken"
  },
  {
    "pageid": 8093198,
    "ns": 0,
    "title": "Inkwil-Bolken\u2013Inkwilersee Insel",
    "lat": 47.198644,
    "lon": 7.662685,
    "dist": 7674,
    "primary": "",
    "url": "https://fr.wikipedia.org/wiki/Inkwil-Bolken%E2%80%93Inkwilersee%20Insel"
  },
  {
    "pageid": 8093173,
    "ns": 0,
    "title": "Lac d'Inkwil",
    "lat": 47.198217,
    "lon": 7.662309,
    "dist": 7675.2,
    "primary": "",
    "url": "https://fr.wikipedia.org/wiki/Lac%20d%27Inkwil"
  },
  {
    "pageid": 10251363,
    "ns": 0,
    "title": "Winistorf",
    "lat": 47.1527,
    "lon": 7.6504,
    "dist": 7700.3,
    "primary": "",
    "url": "https://fr.wikipedia.org/wiki/Winistorf"
  },
  {
    "pageid": 782369,
    "ns": 0,
    "title": "Etziken",
    "lat": 47.188888,
    "lon": 7.648614,
    "dist": 8191.2,
    "primary": "",
    "url": "https://fr.wikipedia.org/wiki/Etziken"
  },
  {
    "pageid": 10251328,
    "ns": 0,
    "title": "Heinrichswil",
    "lat": 47.1571,
    "lon": 7.6363,
    "dist": 8693.8,
    "primary": "",
    "url": "https://fr.wikipedia.org/wiki/Heinrichswil"
  },
  {
    "pageid": 782383,
    "ns": 0,
    "title": "Heinrichswil-Winistorf",
    "lat": 47.157779,
    "lon": 7.636123,
    "dist": 8700.4,
    "primary": "",
    "url": "https://fr.wikipedia.org/wiki/Heinrichswil-Winistorf"
  },
  {
    "pageid": 6679293,
    "ns": 0,
    "title": "Drei H\u00f6fe",
    "lat": 47.157779,
    "lon": 7.636123,
    "dist": 8700.4,
    "primary": "",
    "url": "https://fr.wikipedia.org/wiki/Drei%20H%C3%B6fe"
  },
  {
    "pageid": 782387,
    "ns": 0,
    "title": "Hersiwil",
    "lat": 47.165274,
    "lon": 7.634726,
    "dist": 8775.4,
    "primary": "",
    "url": "https://fr.wikipedia.org/wiki/Hersiwil"
  },
  {
    "pageid": 782394,
    "ns": 0,
    "title": "H\u00fcniken",
    "lat": 47.18611,
    "lon": 7.637507,
    "dist": 8898.4,
    "primary": "",
    "url": "https://fr.wikipedia.org/wiki/H%C3%BCniken"
  },
  {
    "pageid": 379022,
    "ns": 0,
    "title": "Farnern",
    "lat": 47.168058,
    "lon": 7.621125,
    "dist": 9811.4,
    "primary": "",
    "url": "https://fr.wikipedia.org/wiki/Farnern"
  },
  {
    "pageid": 782391,
    "ns": 0,
    "title": "Horriwil",
    "lat": 47.183327,
    "lon": 7.623617,
    "dist": 9842,
    "primary": "",
    "url": "https://fr.wikipedia.org/wiki/Horriwil"
  },
  {
    "pageid": 216522,
    "ns": 0,
    "title": "Deitingen",
    "lat": 47.215834,
    "lon": 7.623624,
    "dist": 11186,
    "primary": "",
    "url": "https://fr.wikipedia.org/wiki/Deitingen"
  },
  {
    "pageid": 365705,
    "ns": 0,
    "title": "Reitnau",
    "lat": 47.252771,
    "lon": 8.044451,
    "dist": 10156.3,
    "primary": "",
    "url": "https://fr.wikipedia.org/wiki/Reitnau"
  },
  {
    "pageid": 211399,
    "ns": 0,
    "title": "Abtwil (Argovie)",
    "lat": 47.176388,
    "lon": 8.355564,
    "dist": 6546.6,
    "primary": "",
    "url": "https://fr.wikipedia.org/wiki/Abtwil%20%28Argovie%29"
  },
  {
    "pageid": 8205519,
    "ns": 0,
    "title": "Amtshaus (Meienberg)",
    "lat": 47.19765,
    "lon": 8.3749,
    "dist": 8696.3,
    "primary": "",
    "url": "https://fr.wikipedia.org/wiki/Amtshaus%20%28Meienberg%29"
  },
  {
    "pageid": 8061754,
    "ns": 0,
    "title": "Ancien moulin d'Auw",
    "lat": 47.2114,
    "lon": 8.3628,
    "dist": 8701.8,
    "primary": "",
    "url": "https://fr.wikipedia.org/wiki/Ancien%20moulin%20d%27Auw"
  },
  {
    "pageid": 8205746,
    "ns": 0,
    "title": "Meienberg",
    "lat": 47.19813,
    "lon": 8.37579,
    "dist": 8779.8,
    "primary": "",
    "url": "https://fr.wikipedia.org/wiki/Meienberg"
  },
  {
    "pageid": 214591,
    "ns": 0,
    "title": "Auw (Argovie)",
    "lat": 47.212496,
    "lon": 8.36666,
    "dist": 9008.4,
    "primary": "",
    "url": "https://fr.wikipedia.org/wiki/Auw%20%28Argovie%29"
  },
  {
    "pageid": 214624,
    "ns": 0,
    "title": "Dietwil",
    "lat": 47.149996,
    "lon": 8.393061,
    "dist": 9381.5,
    "primary": "",
    "url": "https://fr.wikipedia.org/wiki/Dietwil"
  },
  {
    "pageid": 218820,
    "ns": 0,
    "title": "Beinwil (Argovie)",
    "lat": 47.231939,
    "lon": 8.345833,
    "dist": 9414.9,
    "primary": "",
    "url": "https://fr.wikipedia.org/wiki/Beinwil%20%28Argovie%29"
  },
  {
    "pageid": 219087,
    "ns": 0,
    "title": "Oberr\u00fcti",
    "lat": 47.166666,
    "lon": 8.397223,
    "dist": 9561.5,
    "primary": "",
    "url": "https://fr.wikipedia.org/wiki/Oberr%C3%BCti"
  },
  {
    "pageid": 219093,
    "ns": 0,
    "title": "Sins",
    "lat": 47.191665,
    "lon": 8.397222,
    "dist": 10027.1,
    "primary": "",
    "url": "https://fr.wikipedia.org/wiki/Sins"
  },
  {
    "pageid": 904002,
    "ns": 0,
    "title": "Menziken",
    "lat": 47.240273,
    "lon": 8.191667,
    "dist": 10345.1,
    "primary": "",
    "url": "https://fr.wikipedia.org/wiki/Menziken"
  },
  {
    "pageid": 214633,
    "ns": 0,
    "title": "Geltwil",
    "lat": 47.25,
    "lon": 8.32639,
    "dist": 10409.6,
    "primary": "",
    "url": "https://fr.wikipedia.org/wiki/Geltwil"
  },
  {
    "pageid": 903951,
    "ns": 0,
    "title": "Burg (Argovie)",
    "lat": 47.237493,
    "lon": 8.181947,
    "dist": 10545.9,
    "primary": "",
    "url": "https://fr.wikipedia.org/wiki/Burg%20%28Argovie%29"
  },
  {
    "pageid": 121846,
    "ns": 0,
    "title": "Reinach (Argovie)",
    "lat": 47.25,
    "lon": 8.18333333333,
    "dist": 11591.8,
    "primary": "",
    "url": "https://fr.wikipedia.org/wiki/Reinach%20%28Argovie%29"
  },
  {
    "pageid": 214592,
    "ns": 0,
    "title": "Benzenschwil",
    "lat": 47.248,
    "lon": 8.364,
    "dist": 11666.6,
    "primary": "",
    "url": "https://fr.wikipedia.org/wiki/Benzenschwil"
  },
  {
    "pageid": 218832,
    "ns": 0,
    "title": "M\u00fchlau (Argovie)",
    "lat": 47.230553,
    "lon": 8.391673,
    "dist": 11731,
    "primary": "",
    "url": "https://fr.wikipedia.org/wiki/M%C3%BChlau%20%28Argovie%29"
  },
  {
    "pageid": 187636,
    "ns": 0,
    "title": "Roche-d'Or",
    "lat": 47.367083,
    "lon": 6.954194,
    "dist": 2820.9,
    "primary": "",
    "url": "https://fr.wikipedia.org/wiki/Roche-d%27Or"
  },
  {
    "pageid": 667513,
    "ns": 0,
    "title": "Grottes de R\u00e9cl\u00e8re",
    "lat": 47.358889,
    "lon": 6.914167,
    "dist": 4562.3,
    "primary": "",
    "url": "https://fr.wikipedia.org/wiki/Grottes%20de%20R%C3%A9cl%C3%A8re"
  },
  {
    "pageid": 160440,
    "ns": 0,
    "title": "Rocourt (Jura)",
    "lat": 47.3833333333,
    "lon": 6.95,
    "dist": 4609.8,
    "primary": "",
    "url": "https://fr.wikipedia.org/wiki/Rocourt%20%28Jura%29"
  },
  {
    "pageid": 187639,
    "ns": 0,
    "title": "R\u00e9cl\u00e8re",
    "lat": 47.375389,
    "lon": 6.922222,
    "dist": 5030.2,
    "primary": "",
    "url": "https://fr.wikipedia.org/wiki/R%C3%A9cl%C3%A8re"
  },
  {
    "pageid": 1693380,
    "ns": 0,
    "title": "Grandfontaine (Jura)",
    "lat": 47.3833333333,
    "lon": 6.93333333333,
    "dist": 5172.8,
    "primary": "",
    "url": "https://fr.wikipedia.org/wiki/Grandfontaine%20%28Jura%29"
  },
  {
    "pageid": 187649,
    "ns": 0,
    "title": "Chevenez",
    "lat": 47.391556,
    "lon": 6.998694,
    "dist": 5654.9,
    "primary": "",
    "url": "https://fr.wikipedia.org/wiki/Chevenez"
  },
  {
    "pageid": 3567516,
    "ns": 0,
    "title": "Haute-Ajoie",
    "lat": 47.393061,
    "lon": 7.000014,
    "dist": 5847.2,
    "primary": "",
    "url": "https://fr.wikipedia.org/wiki/Haute-Ajoie"
  },
  {
    "pageid": 187657,
    "ns": 0,
    "title": "Damvant",
    "lat": 47.372472,
    "lon": 6.897778,
    "dist": 6327.1,
    "primary": "",
    "url": "https://fr.wikipedia.org/wiki/Damvant"
  },
  {
    "pageid": 1796161,
    "ns": 0,
    "title": "\u00c9piquerez",
    "lat": 47.328333,
    "lon": 7.058389,
    "dist": 6836.7,
    "primary": "",
    "url": "https://fr.wikipedia.org/wiki/%C3%89piquerez"
  },
  {
    "pageid": 13709173,
    "ns": 0,
    "title": "Ch\u00e2teau de Montvoie",
    "lat": 47.365919,
    "lon": 7.056713,
    "dist": 6902.7,
    "primary": "",
    "url": "https://fr.wikipedia.org/wiki/Ch%C3%A2teau%20de%20Montvoie"
  },
  {
    "pageid": 9891028,
    "ns": 0,
    "title": "A\u00e9rodrome de Bressaucourt",
    "lat": 47.3925,
    "lon": 7.02883,
    "dist": 6912.2,
    "primary": "",
    "url": "https://fr.wikipedia.org/wiki/A%C3%A9rodrome%20de%20Bressaucourt"
  },
  {
    "pageid": 188593,
    "ns": 0,
    "title": "Soubey",
    "lat": 47.309726,
    "lon": 7.050013,
    "dist": 7103.9,
    "primary": "",
    "url": "https://fr.wikipedia.org/wiki/Soubey"
  },
  {
    "pageid": 187645,
    "ns": 0,
    "title": "Bressaucourt",
    "lat": 47.388894,
    "lon": 7.038907,
    "dist": 7131.4,
    "primary": "",
    "url": "https://fr.wikipedia.org/wiki/Bressaucourt"
  },
  {
    "pageid": 376256,
    "ns": 0,
    "title": "Creugenat",
    "lat": 47.3963,
    "lon": 7.0273111,
    "dist": 7176,
    "primary": "",
    "url": "https://fr.wikipedia.org/wiki/Creugenat"
  },
  {
    "pageid": 187667,
    "ns": 0,
    "title": "Ocourt",
    "lat": 47.351417,
    "lon": 7.077,
    "dist": 8040.2,
    "primary": "",
    "url": "https://fr.wikipedia.org/wiki/Ocourt"
  },
  {
    "pageid": 188583,
    "ns": 0,
    "title": "Les Pommerats",
    "lat": 47.272508,
    "lon": 6.986124,
    "dist": 8070.8,
    "primary": "",
    "url": "https://fr.wikipedia.org/wiki/Les%20Pommerats"
  },
  {
    "pageid": 188580,
    "ns": 0,
    "title": "Les Enfers",
    "lat": 47.28889,
    "lon": 7.045842,
    "dist": 8368.2,
    "primary": "",
    "url": "https://fr.wikipedia.org/wiki/Les%20Enfers"
  },
  {
    "pageid": 187658,
    "ns": 0,
    "title": "Fahy",
    "lat": 47.419454,
    "lon": 6.951402,
    "dist": 8478.7,
    "primary": "",
    "url": "https://fr.wikipedia.org/wiki/Fahy"
  },
  {
    "pageid": 187655,
    "ns": 0,
    "title": "Courtedoux",
    "lat": 47.40973,
    "lon": 7.04307,
    "dist": 9082,
    "primary": "",
    "url": "https://fr.wikipedia.org/wiki/Courtedoux"
  },
  {
    "pageid": 188584,
    "ns": 0,
    "title": "Montfaucon (Jura)",
    "lat": 47.283341,
    "lon": 7.051408,
    "dist": 9107.4,
    "primary": "",
    "url": "https://fr.wikipedia.org/wiki/Montfaucon%20%28Jura%29"
  },
  {
    "pageid": 188556,
    "ns": 0,
    "title": "Goumois (Jura)",
    "lat": 47.262505,
    "lon": 6.952793,
    "dist": 9200.5,
    "primary": "",
    "url": "https://fr.wikipedia.org/wiki/Goumois%20%28Jura%29"
  },
  {
    "pageid": 188568,
    "ns": 0,
    "title": "Le B\u00e9mont",
    "lat": 47.265283,
    "lon": 7.013907,
    "dist": 9372.8,
    "primary": "",
    "url": "https://fr.wikipedia.org/wiki/Le%20B%C3%A9mont"
  },
  {
    "pageid": 11072134,
    "ns": 0,
    "title": "Circuit de Porrentruy-Courtedoux",
    "lat": 47.410179,
    "lon": 7.049016,
    "dist": 9396,
    "primary": "",
    "url": "https://fr.wikipedia.org/wiki/Circuit%20de%20Porrentruy-Courtedoux"
  },
  {
    "pageid": 13027005,
    "ns": 0,
    "title": "Gare du B\u00e9mont",
    "lat": 47.263173,
    "lon": 7.01412,
    "dist": 9598.7,
    "primary": "",
    "url": "https://fr.wikipedia.org/wiki/Gare%20du%20B%C3%A9mont"
  },
  {
    "pageid": 188586,
    "ns": 0,
    "title": "Montfavergier",
    "lat": 47.31084,
    "lon": 7.091676,
    "dist": 9843,
    "primary": "",
    "url": "https://fr.wikipedia.org/wiki/Montfavergier"
  },
  {
    "pageid": 188590,
    "ns": 0,
    "title": "Saignel\u00e9gier",
    "lat": 47.256945,
    "lon": 6.997234,
    "dist": 9920.5,
    "primary": "",
    "url": "https://fr.wikipedia.org/wiki/Saignel%C3%A9gier"
  },
  {
    "pageid": 10526290,
    "ns": 0,
    "title": "Gare de Pr\u00e9-Petitjean",
    "lat": 47.277085,
    "lon": 7.058546,
    "dist": 9985,
    "primary": "",
    "url": "https://fr.wikipedia.org/wiki/Gare%20de%20Pr%C3%A9-Petitjean"
  },
  {
    "pageid": 14030561,
    "ns": 0,
    "title": "La Traction",
    "lat": 47.278299,
    "lon": 7.061805,
    "dist": 10050.4,
    "primary": "",
    "url": "https://fr.wikipedia.org/wiki/La%20Traction"
  },
  {
    "pageid": 13027377,
    "ns": 0,
    "title": "Gare de Saignel\u00e9gier",
    "lat": 47.254445,
    "lon": 6.994258,
    "dist": 10151.5,
    "primary": "",
    "url": "https://fr.wikipedia.org/wiki/Gare%20de%20Saignel%C3%A9gier"
  },
  {
    "pageid": 187659,
    "ns": 0,
    "title": "Fontenais",
    "lat": 47.404168,
    "lon": 7.080576,
    "dist": 10611.1,
    "primary": "",
    "url": "https://fr.wikipedia.org/wiki/Fontenais"
  },
  {
    "pageid": 183535,
    "ns": 0,
    "title": "District de Porrentruy",
    "lat": 47.4167,
    "lon": 7.0667,
    "dist": 10811.1,
    "primary": "",
    "url": "https://fr.wikipedia.org/wiki/District%20de%20Porrentruy"
  },
  {
    "pageid": 455455,
    "ns": 0,
    "title": "Ajoie",
    "lat": 47.417,
    "lon": 7.067,
    "dist": 10851,
    "primary": "",
    "url": "https://fr.wikipedia.org/wiki/Ajoie"
  },
  {
    "pageid": 1372597,
    "ns": 0,
    "title": "Jardin botanique de Porrentruy",
    "lat": 47.41367,
    "lon": 7.0773,
    "dist": 11123.8,
    "primary": "",
    "url": "https://fr.wikipedia.org/wiki/Jardin%20botanique%20de%20Porrentruy"
  },
  {
    "pageid": 1265215,
    "ns": 0,
    "title": "Banque cantonale du Jura",
    "lat": 47.416931,
    "lon": 7.07329,
    "dist": 11167.2,
    "primary": "",
    "url": "https://fr.wikipedia.org/wiki/Banque%20cantonale%20du%20Jura"
  },
  {
    "pageid": 1338066,
    "ns": 0,
    "title": "Biblioth\u00e8que cantonale jurassienne",
    "lat": 47.41729,
    "lon": 7.07394,
    "dist": 11229.9,
    "primary": "",
    "url": "https://fr.wikipedia.org/wiki/Biblioth%C3%A8que%20cantonale%20jurassienne"
  },
  {
    "pageid": 10560241,
    "ns": 0,
    "title": "Archives cantonales jurassiennes",
    "lat": 47.41729,
    "lon": 7.07394,
    "dist": 11229.9,
    "primary": "",
    "url": "https://fr.wikipedia.org/wiki/Archives%20cantonales%20jurassiennes"
  },
  {
    "pageid": 12841939,
    "ns": 0,
    "title": "\u00c9glise Saint-Pierre (Porrentruy)",
    "lat": 47.41584,
    "lon": 7.07667,
    "dist": 11258.6,
    "primary": "",
    "url": "https://fr.wikipedia.org/wiki/%C3%89glise%20Saint-Pierre%20%28Porrentruy%29"
  },
  {
    "pageid": 3986947,
    "ns": 0,
    "title": "Rock'air",
    "lat": 47.4171,
    "lon": 7.0755,
    "dist": 11296.3,
    "primary": "",
    "url": "https://fr.wikipedia.org/wiki/Rock%27air"
  },
  {
    "pageid": 187631,
    "ns": 0,
    "title": "Porrentruy",
    "lat": 47.41713,
    "lon": 7.07613,
    "dist": 11331.8,
    "primary": "",
    "url": "https://fr.wikipedia.org/wiki/Porrentruy"
  },
  {
    "pageid": 1385509,
    "ns": 0,
    "title": "Ch\u00e2teau de Porrentruy",
    "lat": 47.419429,
    "lon": 7.072598,
    "dist": 11334.2,
    "primary": "",
    "url": "https://fr.wikipedia.org/wiki/Ch%C3%A2teau%20de%20Porrentruy"
  },
  {
    "pageid": 6357950,
    "ns": 0,
    "title": "Prise de Porrentruy",
    "lat": 47.418055,
    "lon": 7.077793,
    "dist": 11492.9,
    "primary": "",
    "url": "https://fr.wikipedia.org/wiki/Prise%20de%20Porrentruy"
  },
  {
    "pageid": 431897,
    "ns": 0,
    "title": "Championnat de Suisse de hockey sur glace D2",
    "lat": 47.418055,
    "lon": 7.077806,
    "dist": 11493.6,
    "primary": "",
    "url": "https://fr.wikipedia.org/wiki/Championnat%20de%20Suisse%20de%20hockey%20sur%20glace%20D2"
  },
  {
    "pageid": 10650638,
    "ns": 0,
    "title": "Gare de La Combe",
    "lat": 47.284331,
    "lon": 7.099507,
    "dist": 11776.4,
    "primary": "",
    "url": "https://fr.wikipedia.org/wiki/Gare%20de%20La%20Combe"
  },
  {
    "pageid": 5503487,
    "ns": 0,
    "title": "Gare de Porrentruy",
    "lat": 47.42087,
    "lon": 7.080361,
    "dist": 11851.8,
    "primary": "",
    "url": "https://fr.wikipedia.org/wiki/Gare%20de%20Porrentruy"
  },
  {
    "pageid": 8380834,
    "ns": 0,
    "title": "Raiffeisen Arena (Porrentruy)",
    "lat": 47.41724,
    "lon": 7.08995,
    "dist": 12091.1,
    "primary": "",
    "url": "https://fr.wikipedia.org/wiki/Raiffeisen%20Arena%20%28Porrentruy%29"
  },
  {
    "pageid": 6046619,
    "ns": 0,
    "title": "Haute-Sorne",
    "lat": 47.338894,
    "lon": 7.24584,
    "dist": 1285.5,
    "primary": "",
    "url": "https://fr.wikipedia.org/wiki/Haute-Sorne"
  },
  {
    "pageid": 185628,
    "ns": 0,
    "title": "Bassecourt",
    "lat": 47.338894,
    "lon": 7.24584,
    "dist": 1285.5,
    "primary": "",
    "url": "https://fr.wikipedia.org/wiki/Bassecourt"
  },
  {
    "pageid": 185630,
    "ns": 0,
    "title": "Bo\u00e9court",
    "lat": 47.351395,
    "lon": 7.215289,
    "dist": 1406.9,
    "primary": "",
    "url": "https://fr.wikipedia.org/wiki/Bo%C3%A9court"
  },
  {
    "pageid": 5450185,
    "ns": 0,
    "title": "Gare de Bassecourt",
    "lat": 47.336619,
    "lon": 7.246813,
    "dist": 1481.4,
    "primary": "",
    "url": "https://fr.wikipedia.org/wiki/Gare%20de%20Bassecourt"
  },
  {
    "pageid": 5450364,
    "ns": 0,
    "title": "Gare de Glovelier",
    "lat": 47.335238,
    "lon": 7.209343,
    "dist": 1907.1,
    "primary": "",
    "url": "https://fr.wikipedia.org/wiki/Gare%20de%20Glovelier"
  },
  {
    "pageid": 185701,
    "ns": 0,
    "title": "Glovelier",
    "lat": 47.334724,
    "lon": 7.204179,
    "dist": 2272.8,
    "primary": "",
    "url": "https://fr.wikipedia.org/wiki/Glovelier"
  },
  {
    "pageid": 11596155,
    "ns": 0,
    "title": "Tunnel du Mont-Russelin",
    "lat": 47.35472,
    "lon": 7.19583,
    "dist": 2875.7,
    "primary": "",
    "url": "https://fr.wikipedia.org/wiki/Tunnel%20du%20Mont-Russelin"
  },
  {
    "pageid": 2745226,
    "ns": 0,
    "title": "Montavon",
    "lat": 47.372194,
    "lon": 7.236444,
    "dist": 3126.1,
    "primary": "",
    "url": "https://fr.wikipedia.org/wiki/Montavon"
  },
  {
    "pageid": 149999,
    "ns": 0,
    "title": "Develier",
    "lat": 47.35,
    "lon": 7.28333333333,
    "dist": 4008.1,
    "primary": "",
    "url": "https://fr.wikipedia.org/wiki/Develier"
  },
  {
    "pageid": 3921153,
    "ns": 0,
    "title": "Sentinelle des Rangiers",
    "lat": 47.378221099617,
    "lon": 7.2111720318934,
    "dist": 4046.7,
    "primary": "",
    "url": "https://fr.wikipedia.org/wiki/Sentinelle%20des%20Rangiers"
  },
  {
    "pageid": 185682,
    "ns": 0,
    "title": "Courfaivre",
    "lat": 47.336108,
    "lon": 7.283347,
    "dist": 4064.4,
    "primary": "",
    "url": "https://fr.wikipedia.org/wiki/Courfaivre"
  },
  {
    "pageid": 41706,
    "ns": 0,
    "title": "Montmelon",
    "lat": 47.355472,
    "lon": 7.179028,
    "dist": 4091.5,
    "primary": "",
    "url": "https://fr.wikipedia.org/wiki/Montmelon"
  },
  {
    "pageid": 336054,
    "ns": 0,
    "title": "Autoroute A16 (Suisse)",
    "lat": 47.366692,
    "lon": 7.185168,
    "dist": 4241.3,
    "primary": "",
    "url": "https://fr.wikipedia.org/wiki/Autoroute%20A16%20%28Suisse%29"
  },
  {
    "pageid": 186602,
    "ns": 0,
    "title": "Undervelier",
    "lat": 47.304166,
    "lon": 7.225007,
    "dist": 4488.6,
    "primary": "",
    "url": "https://fr.wikipedia.org/wiki/Undervelier"
  },
  {
    "pageid": 3913156,
    "ns": 0,
    "title": "Col des Rangiers",
    "lat": 47.38472,
    "lon": 7.21917,
    "dist": 4574.4,
    "primary": "",
    "url": "https://fr.wikipedia.org/wiki/Col%20des%20Rangiers"
  },
  {
    "pageid": 5450135,
    "ns": 0,
    "title": "Gare de Courfaivre",
    "lat": 47.335151,
    "lon": 7.291273,
    "dist": 4670.4,
    "primary": "",
    "url": "https://fr.wikipedia.org/wiki/Gare%20de%20Courfaivre"
  },
  {
    "pageid": 172330,
    "ns": 0,
    "title": "Mus\u00e9e Chappuis-F\u00e4hndrich",
    "lat": 47.353,
    "lon": 7.292,
    "dist": 4710.7,
    "primary": "",
    "url": "https://fr.wikipedia.org/wiki/Mus%C3%A9e%20Chappuis-F%C3%A4hndrich"
  },
  {
    "pageid": 350706,
    "ns": 0,
    "title": "Les Ordons",
    "lat": 47.38778,
    "lon": 7.23139,
    "dist": 4830.3,
    "primary": "",
    "url": "https://fr.wikipedia.org/wiki/Les%20Ordons"
  },
  {
    "pageid": 186412,
    "ns": 0,
    "title": "Soulce",
    "lat": 47.304998,
    "lon": 7.271682,
    "dist": 5351.4,
    "primary": "",
    "url": "https://fr.wikipedia.org/wiki/Soulce"
  },
  {
    "pageid": 5503464,
    "ns": 0,
    "title": "Gare de Saint-Ursanne",
    "lat": 47.367681,
    "lon": 7.165872,
    "dist": 5536.3,
    "primary": "",
    "url": "https://fr.wikipedia.org/wiki/Gare%20de%20Saint-Ursanne"
  },
  {
    "pageid": 1541090,
    "ns": 0,
    "title": "Laboratoire souterrain du Mont-Terri",
    "lat": 47.376093,
    "lon": 7.167592,
    "dist": 5926.8,
    "primary": "",
    "url": "https://fr.wikipedia.org/wiki/Laboratoire%20souterrain%20du%20Mont-Terri"
  },
  {
    "pageid": 3567487,
    "ns": 0,
    "title": "Clos-du-Doubs",
    "lat": 47.365277,
    "lon": 7.155567,
    "dist": 6126.3,
    "primary": "",
    "url": "https://fr.wikipedia.org/wiki/Clos-du-Doubs"
  },
  {
    "pageid": 187665,
    "ns": 0,
    "title": "Montenol",
    "lat": 47.35175,
    "lon": 7.149833,
    "dist": 6154.9,
    "primary": "",
    "url": "https://fr.wikipedia.org/wiki/Montenol"
  },
  {
    "pageid": 41708,
    "ns": 0,
    "title": "Saint-Ursanne",
    "lat": 47.364454943223,
    "lon": 7.1539562283528,
    "dist": 6205.2,
    "primary": "",
    "url": "https://fr.wikipedia.org/wiki/Saint-Ursanne"
  },
  {
    "pageid": 13706707,
    "ns": 0,
    "title": "Ch\u00e2teau d'Asuel",
    "lat": 47.399154,
    "lon": 7.210003,
    "dist": 6292.7,
    "primary": "",
    "url": "https://fr.wikipedia.org/wiki/Ch%C3%A2teau%20d%27Asuel"
  },
  {
    "pageid": 1886221,
    "ns": 0,
    "title": "Outremont (canton du Jura)",
    "lat": 47.3775,
    "lon": 7.1625,
    "dist": 6328.8,
    "primary": "",
    "url": "https://fr.wikipedia.org/wiki/Outremont%20%28canton%20du%20Jura%29"
  },
  {
    "pageid": 140143,
    "ns": 0,
    "title": "Bourrignon",
    "lat": 47.4,
    "lon": 7.25,
    "dist": 6355.7,
    "primary": "",
    "url": "https://fr.wikipedia.org/wiki/Bourrignon"
  },
  {
    "pageid": 10705716,
    "ns": 0,
    "title": "Sceut",
    "lat": 47.319455,
    "lon": 7.154627,
    "dist": 6372.3,
    "primary": "",
    "url": "https://fr.wikipedia.org/wiki/Sceut"
  },
  {
    "pageid": 11077878,
    "ns": 0,
    "title": "Tunnel du Mont-Terri",
    "lat": 47.38101,
    "lon": 7.16506,
    "dist": 6413.7,
    "primary": "",
    "url": "https://fr.wikipedia.org/wiki/Tunnel%20du%20Mont-Terri"
  },
  {
    "pageid": 10706012,
    "ns": 0,
    "title": "Gare de Combe-Tabeillon",
    "lat": 47.313594,
    "lon": 7.157854,
    "dist": 6473.7,
    "primary": "",
    "url": "https://fr.wikipedia.org/wiki/Gare%20de%20Combe-Tabeillon"
  },
  {
    "pageid": 187641,
    "ns": 0,
    "title": "Asuel",
    "lat": 47.401194,
    "lon": 7.211333,
    "dist": 6489.3,
    "primary": "",
    "url": "https://fr.wikipedia.org/wiki/Asuel"
  },
  {
    "pageid": 140843,
    "ns": 0,
    "title": "Court\u00e9telle",
    "lat": 47.35,
    "lon": 7.31666666667,
    "dist": 6500.3,
    "primary": "",
    "url": "https://fr.wikipedia.org/wiki/Court%C3%A9telle"
  },
  {
    "pageid": 1371987,
    "ns": 0,
    "title": "Canton du Jura",
    "lat": 47.366666666667,
    "lon": 7.15,
    "dist": 6572.9,
    "primary": "",
    "url": "https://fr.wikipedia.org/wiki/Canton%20du%20Jura"
  },
  {
    "pageid": 5450124,
    "ns": 0,
    "title": "Gare de Court\u00e9telle",
    "lat": 47.342731,
    "lon": 7.318064,
    "dist": 6577.9,
    "primary": "",
    "url": "https://fr.wikipedia.org/wiki/Gare%20de%20Court%C3%A9telle"
  },
  {
    "pageid": 987276,
    "ns": 0,
    "title": "Mont Terri",
    "lat": 47.39124,
    "lon": 7.16122,
    "dist": 7392.5,
    "primary": "",
    "url": "https://fr.wikipedia.org/wiki/Mont%20Terri"
  },
  {
    "pageid": 186408,
    "ns": 0,
    "title": "Saulcy (Jura)",
    "lat": 47.302781,
    "lon": 7.154179,
    "dist": 7396.3,
    "primary": "",
    "url": "https://fr.wikipedia.org/wiki/Saulcy%20%28Jura%29"
  },
  {
    "pageid": 5670328,
    "ns": 0,
    "title": "Col de la Croix (Jura)",
    "lat": 47.37295,
    "lon": 7.1412,
    "dist": 7460.7,
    "primary": "",
    "url": "https://fr.wikipedia.org/wiki/Col%20de%20la%20Croix%20%28Jura%29"
  },
  {
    "pageid": 4101798,
    "ns": 0,
    "title": "Ch\u00e2teau de Pleujouse",
    "lat": 47.411528,
    "lon": 7.211722,
    "dist": 7607.5,
    "primary": "",
    "url": "https://fr.wikipedia.org/wiki/Ch%C3%A2teau%20de%20Pleujouse"
  },
  {
    "pageid": 187668,
    "ns": 0,
    "title": "Pleujouse",
    "lat": 47.412506,
    "lon": 7.212516,
    "dist": 7703.4,
    "primary": "",
    "url": "https://fr.wikipedia.org/wiki/Pleujouse"
  },
  {
    "pageid": 183531,
    "ns": 0,
    "title": "District de Del\u00e9mont",
    "lat": 47.35,
    "lon": 7.3333,
    "dist": 7748.5,
    "primary": "",
    "url": "https://fr.wikipedia.org/wiki/District%20de%20Del%C3%A9mont"
  },
  {
    "pageid": 187660,
    "ns": 0,
    "title": "Fregi\u00e9court",
    "lat": 47.412872,
    "lon": 7.198749,
    "dist": 7993.1,
    "primary": "",
    "url": "https://fr.wikipedia.org/wiki/Fregi%C3%A9court"
  },
  {
    "pageid": 10650660,
    "ns": 0,
    "title": "Gare de Fondeval",
    "lat": 47.304913,
    "lon": 7.134884,
    "dist": 8454.6,
    "primary": "",
    "url": "https://fr.wikipedia.org/wiki/Gare%20de%20Fondeval"
  },
  {
    "pageid": 186406,
    "ns": 0,
    "title": "Rossemaison",
    "lat": 47.347227,
    "lon": 7.343064,
    "dist": 8464.9,
    "primary": "",
    "url": "https://fr.wikipedia.org/wiki/Rossemaison"
  },
  {
    "pageid": 186398,
    "ns": 0,
    "title": "Pleigne",
    "lat": 47.408336,
    "lon": 7.293073,
    "dist": 8522.2,
    "primary": "",
    "url": "https://fr.wikipedia.org/wiki/Pleigne"
  },
  {
    "pageid": 12124500,
    "ns": 0,
    "title": "Stade de la Blancherie",
    "lat": 47.360278,
    "lon": 7.341667,
    "dist": 8538.4,
    "primary": "",
    "url": "https://fr.wikipedia.org/wiki/Stade%20de%20la%20Blancherie"
  },
  {
    "pageid": 187652,
    "ns": 0,
    "title": "Cornol",
    "lat": 47.40695,
    "lon": 7.163904,
    "dist": 8592.7,
    "primary": "",
    "url": "https://fr.wikipedia.org/wiki/Cornol"
  },
  {
    "pageid": 185632,
    "ns": 0,
    "title": "Ch\u00e2tillon (Del\u00e9mont)",
    "lat": 47.329166,
    "lon": 7.34307,
    "dist": 8627.3,
    "primary": "",
    "url": "https://fr.wikipedia.org/wiki/Ch%C3%A2tillon%20%28Del%C3%A9mont%29"
  },
  {
    "pageid": 3011880,
    "ns": 0,
    "title": "Mus\u00e9e jurassien d'art et d'histoire",
    "lat": 47.364531365745,
    "lon": 7.3419344401935,
    "dist": 8668.1,
    "primary": "",
    "url": "https://fr.wikipedia.org/wiki/Mus%C3%A9e%20jurassien%20d%27art%20et%20d%27histoire"
  },
  {
    "pageid": 5617960,
    "ns": 0,
    "title": "Ch\u00e2teau de Del\u00e9mont",
    "lat": 47.363839587367,
    "lon": 7.3428755726404,
    "dist": 8717.2,
    "primary": "",
    "url": "https://fr.wikipedia.org/wiki/Ch%C3%A2teau%20de%20Del%C3%A9mont"
  },
  {
    "pageid": 1796182,
    "ns": 0,
    "title": "\u00c9pauvillers",
    "lat": 47.334972,
    "lon": 7.115139,
    "dist": 8776.8,
    "primary": "",
    "url": "https://fr.wikipedia.org/wiki/%C3%89pauvillers"
  },
  {
    "pageid": 376296,
    "ns": 0,
    "title": "Lucelle (Haut-Rhin)",
    "lat": 47.4231,
    "lon": 7.2478,
    "dist": 8850.6,
    "primary": "",
    "url": "https://fr.wikipedia.org/wiki/Lucelle%20%28Haut-Rhin%29"
  },
  {
    "pageid": 10395443,
    "ns": 0,
    "title": "Jardin de Montcroix",
    "lat": 47.3678,
    "lon": 7.34629,
    "dist": 9082.8,
    "primary": "",
    "url": "https://fr.wikipedia.org/wiki/Jardin%20de%20Montcroix"
  },
  {
    "pageid": 187648,
    "ns": 0,
    "title": "Charmoille (Jura)",
    "lat": 47.425006,
    "lon": 7.206963,
    "dist": 9147.1,
    "primary": "",
    "url": "https://fr.wikipedia.org/wiki/Charmoille%20%28Jura%29"
  },
  {
    "pageid": 5450102,
    "ns": 0,
    "title": "Gare de Del\u00e9mont",
    "lat": 47.361826,
    "lon": 7.350277,
    "dist": 9208.6,
    "primary": "",
    "url": "https://fr.wikipedia.org/wiki/Gare%20de%20Del%C3%A9mont"
  },
  {
    "pageid": 186384,
    "ns": 0,
    "title": "Mettembert",
    "lat": 47.400005,
    "lon": 7.322238,
    "dist": 9259,
    "primary": "",
    "url": "https://fr.wikipedia.org/wiki/Mettembert"
  },
  {
    "pageid": 187634,
    "ns": 0,
    "title": "Seleute",
    "lat": 47.366778,
    "lon": 7.11225,
    "dist": 9271.7,
    "primary": "",
    "url": "https://fr.wikipedia.org/wiki/Seleute"
  },
  {
    "pageid": 375022,
    "ns": 0,
    "title": "Montchaibeux",
    "lat": 47.33908,
    "lon": 7.3539,
    "dist": 9294.3,
    "primary": "",
    "url": "https://fr.wikipedia.org/wiki/Montchaibeux"
  },
  {
    "pageid": 1796199,
    "ns": 0,
    "title": "Del\u00e9mont",
    "lat": 47.3666666667,
    "lon": 7.35,
    "dist": 9316.5,
    "primary": "",
    "url": "https://fr.wikipedia.org/wiki/Del%C3%A9mont"
  },
  {
    "pageid": 3909926,
    "ns": 0,
    "title": "Miserez",
    "lat": 47.423722,
    "lon": 7.191167,
    "dist": 9317.2,
    "primary": "",
    "url": "https://fr.wikipedia.org/wiki/Miserez"
  },
  {
    "pageid": 9638799,
    "ns": 0,
    "title": "Archives Jura Br\u00fcschweiler",
    "lat": 47.365223,
    "lon": 7.353032,
    "dist": 9496.5,
    "primary": "",
    "url": "https://fr.wikipedia.org/wiki/Archives%20Jura%20Br%C3%BCschweiler"
  },
  {
    "pageid": 7627933,
    "ns": 0,
    "title": "Gare de Bollement",
    "lat": 47.297166,
    "lon": 7.123952,
    "dist": 9611.3,
    "primary": "",
    "url": "https://fr.wikipedia.org/wiki/Gare%20de%20Bollement"
  },
  {
    "pageid": 188591,
    "ns": 0,
    "title": "Saint-Brais",
    "lat": 47.306947,
    "lon": 7.113904,
    "dist": 9742.1,
    "primary": "",
    "url": "https://fr.wikipedia.org/wiki/Saint-Brais"
  },
  {
    "pageid": 186395,
    "ns": 0,
    "title": "Movelier",
    "lat": 47.41056,
    "lon": 7.318068,
    "dist": 9869.2,
    "primary": "",
    "url": "https://fr.wikipedia.org/wiki/Movelier"
  },
  {
    "pageid": 5617027,
    "ns": 0,
    "title": "Rotonde de Del\u00e9mont",
    "lat": 47.363465,
    "lon": 7.359211,
    "dist": 9904.8,
    "primary": "",
    "url": "https://fr.wikipedia.org/wiki/Rotonde%20de%20Del%C3%A9mont"
  },
  {
    "pageid": 10442506,
    "ns": 0,
    "title": "Siphon de Lucelle",
    "lat": 47.4294556,
    "lon": 7.2727111,
    "dist": 9976.5,
    "primary": "",
    "url": "https://fr.wikipedia.org/wiki/Siphon%20de%20Lucelle"
  },
  {
    "pageid": 188564,
    "ns": 0,
    "title": "Lajoux (Jura)",
    "lat": 47.280558,
    "lon": 7.137512,
    "dist": 9987.9,
    "primary": "",
    "url": "https://fr.wikipedia.org/wiki/Lajoux%20%28Jura%29"
  },
  {
    "pageid": 722283,
    "ns": 0,
    "title": "Ch\u00e2teau de Vorbourg",
    "lat": 47.37983,
    "lon": 7.3568,
    "dist": 10278.4,
    "primary": "",
    "url": "https://fr.wikipedia.org/wiki/Ch%C3%A2teau%20de%20Vorbourg"
  },
  {
    "pageid": 187663,
    "ns": 0,
    "title": "Mi\u00e9court",
    "lat": 47.429168,
    "lon": 7.176407,
    "dist": 10282.6,
    "primary": "",
    "url": "https://fr.wikipedia.org/wiki/Mi%C3%A9court"
  },
  {
    "pageid": 3567500,
    "ns": 0,
    "title": "La Baroche",
    "lat": 47.429168,
    "lon": 7.176407,
    "dist": 10282.6,
    "primary": "",
    "url": "https://fr.wikipedia.org/wiki/La%20Baroche"
  },
  {
    "pageid": 187654,
    "ns": 0,
    "title": "Courgenay (Jura)",
    "lat": 47.404171,
    "lon": 7.125023,
    "dist": 10377.6,
    "primary": "",
    "url": "https://fr.wikipedia.org/wiki/Courgenay%20%28Jura%29"
  },
  {
    "pageid": 5503472,
    "ns": 0,
    "title": "Gare de Courgenay",
    "lat": 47.40524,
    "lon": 7.124166,
    "dist": 10503.4,
    "primary": "",
    "url": "https://fr.wikipedia.org/wiki/Gare%20de%20Courgenay"
  },
  {
    "pageid": 13048389,
    "ns": 0,
    "title": "Gare d'Alle",
    "lat": 47.424203,
    "lon": 7.128453,
    "dist": 11756.9,
    "primary": "",
    "url": "https://fr.wikipedia.org/wiki/Gare%20d%27Alle"
  },
  {
    "pageid": 3525131,
    "ns": 0,
    "title": "Alle (Jura)",
    "lat": 47.427778,
    "lon": 7.13057,
    "dist": 11958.6,
    "primary": "",
    "url": "https://fr.wikipedia.org/wiki/Alle%20%28Jura%29"
  },
  {
    "pageid": 185690,
    "ns": 0,
    "title": "Ederswiler",
    "lat": 47.426389,
    "lon": 7.336123,
    "dist": 12087.9,
    "primary": "",
    "url": "https://fr.wikipedia.org/wiki/Ederswiler"
  },
  {
    "pageid": 188581,
    "ns": 0,
    "title": "Les Genevez",
    "lat": 47.256946,
    "lon": 7.130563,
    "dist": 12311.1,
    "primary": "",
    "url": "https://fr.wikipedia.org/wiki/Les%20Genevez"
  },
  {
    "pageid": 1068979,
    "ns": 0,
    "title": "Roggenburg (B\u00e2le-Campagne)",
    "lat": 47.433339,
    "lon": 7.333353,
    "dist": 12551.6,
    "primary": "",
    "url": "https://fr.wikipedia.org/wiki/Roggenburg%20%28B%C3%A2le-Campagne%29"
  },
  {
    "pageid": 185706,
    "ns": 0,
    "title": "Mervelier",
    "lat": 47.344444,
    "lon": 7.500011,
    "dist": 694.6,
    "primary": "",
    "url": "https://fr.wikipedia.org/wiki/Mervelier"
  },
  {
    "pageid": 185634,
    "ns": 0,
    "title": "Corban",
    "lat": 47.348052,
    "lon": 7.477783,
    "dist": 1063.5,
    "primary": "",
    "url": "https://fr.wikipedia.org/wiki/Corban"
  },
  {
    "pageid": 186609,
    "ns": 0,
    "title": "Vermes",
    "lat": 47.33028,
    "lon": 7.475005,
    "dist": 1964.8,
    "primary": "",
    "url": "https://fr.wikipedia.org/wiki/Vermes"
  },
  {
    "pageid": 186391,
    "ns": 0,
    "title": "Montsevelier",
    "lat": 47.3625,
    "lon": 7.508345,
    "dist": 2413.5,
    "primary": "",
    "url": "https://fr.wikipedia.org/wiki/Montsevelier"
  },
  {
    "pageid": 185678,
    "ns": 0,
    "title": "Courchapoix",
    "lat": 47.35,
    "lon": 7.456953,
    "dist": 2626,
    "primary": "",
    "url": "https://fr.wikipedia.org/wiki/Courchapoix"
  },
  {
    "pageid": 4529672,
    "ns": 0,
    "title": "Val Terbi (vall\u00e9e)",
    "lat": 47.3512,
    "lon": 7.45,
    "dist": 3166.5,
    "primary": "",
    "url": "https://fr.wikipedia.org/wiki/Val%20Terbi%20%28vall%C3%A9e%29"
  },
  {
    "pageid": 216516,
    "ns": 0,
    "title": "Grindel",
    "lat": 47.383333,
    "lon": 7.504175,
    "dist": 4451.2,
    "primary": "",
    "url": "https://fr.wikipedia.org/wiki/Grindel"
  },
  {
    "pageid": 756591,
    "ns": 0,
    "title": "B\u00e4rschwil",
    "lat": 47.383338,
    "lon": 7.473624,
    "dist": 4524.9,
    "primary": "",
    "url": "https://fr.wikipedia.org/wiki/B%C3%A4rschwil"
  },
  {
    "pageid": 5666652,
    "ns": 0,
    "title": "Ch\u00e2teau de Raymontpierre",
    "lat": 47.31518,
    "lon": 7.44861,
    "dist": 4541.1,
    "primary": "",
    "url": "https://fr.wikipedia.org/wiki/Ch%C3%A2teau%20de%20Raymontpierre"
  },
  {
    "pageid": 757084,
    "ns": 0,
    "title": "Erschwil",
    "lat": 47.373609,
    "lon": 7.543062,
    "dist": 5108,
    "primary": "",
    "url": "https://fr.wikipedia.org/wiki/Erschwil"
  },
  {
    "pageid": 11121465,
    "ns": 0,
    "title": "Observatoire astronomique jurassien",
    "lat": 47.352777777778,
    "lon": 7.4216666666667,
    "dist": 5291.7,
    "primary": "",
    "url": "https://fr.wikipedia.org/wiki/Observatoire%20astronomique%20jurassien"
  },
  {
    "pageid": 6046649,
    "ns": 0,
    "title": "Val Terbi (commune)",
    "lat": 47.349998,
    "lon": 7.411123,
    "dist": 6035.3,
    "primary": "",
    "url": "https://fr.wikipedia.org/wiki/Val%20Terbi%20%28commune%29"
  },
  {
    "pageid": 186611,
    "ns": 0,
    "title": "Vicques (Jura)",
    "lat": 47.349998,
    "lon": 7.411123,
    "dist": 6035.3,
    "primary": "",
    "url": "https://fr.wikipedia.org/wiki/Vicques%20%28Jura%29"
  },
  {
    "pageid": 375316,
    "ns": 0,
    "title": "Scheulte",
    "lat": 47.3421,
    "lon": 7.57111,
    "dist": 6056.7,
    "primary": "",
    "url": "https://fr.wikipedia.org/wiki/Scheulte"
  },
  {
    "pageid": 186403,
    "ns": 0,
    "title": "Rebeuvelier",
    "lat": 47.325003,
    "lon": 7.41529,
    "dist": 6082.6,
    "primary": "",
    "url": "https://fr.wikipedia.org/wiki/Rebeuvelier"
  },
  {
    "pageid": 757080,
    "ns": 0,
    "title": "B\u00fcsserach",
    "lat": 47.391663,
    "lon": 7.54029,
    "dist": 6448.5,
    "primary": "",
    "url": "https://fr.wikipedia.org/wiki/B%C3%BCsserach"
  },
  {
    "pageid": 1068985,
    "ns": 0,
    "title": "Wahlen (B\u00e2le-Campagne)",
    "lat": 47.40278,
    "lon": 7.516399,
    "dist": 6778.1,
    "primary": "",
    "url": "https://fr.wikipedia.org/wiki/Wahlen%20%28B%C3%A2le-Campagne%29"
  },
  {
    "pageid": 11193828,
    "ns": 0,
    "title": "Abbaye de Beinwil",
    "lat": 47.362167,
    "lon": 7.587111,
    "dist": 7521.7,
    "primary": "",
    "url": "https://fr.wikipedia.org/wiki/Abbaye%20de%20Beinwil"
  },
  {
    "pageid": 216515,
    "ns": 0,
    "title": "Welschenrohr",
    "lat": 47.281662,
    "lon": 7.528899,
    "dist": 7538.5,
    "primary": "",
    "url": "https://fr.wikipedia.org/wiki/Welschenrohr"
  },
  {
    "pageid": 756607,
    "ns": 0,
    "title": "Beinwil (Soleure)",
    "lat": 47.363891,
    "lon": 7.587509,
    "dist": 7603,
    "primary": "",
    "url": "https://fr.wikipedia.org/wiki/Beinwil%20%28Soleure%29"
  },
  {
    "pageid": 11653218,
    "ns": 0,
    "title": "Courcelon",
    "lat": 47.36245,
    "lon": 7.392105,
    "dist": 7702.2,
    "primary": "",
    "url": "https://fr.wikipedia.org/wiki/Courcelon"
  },
  {
    "pageid": 1068981,
    "ns": 0,
    "title": "R\u00f6schenz",
    "lat": 47.416667,
    "lon": 7.483346,
    "dist": 8061.7,
    "primary": "",
    "url": "https://fr.wikipedia.org/wiki/R%C3%B6schenz"
  },
  {
    "pageid": 219086,
    "ns": 0,
    "title": "Laufon",
    "lat": 47.416668,
    "lon": 7.500015,
    "dist": 8072.2,
    "primary": "",
    "url": "https://fr.wikipedia.org/wiki/Laufon"
  },
  {
    "pageid": 556774,
    "ns": 0,
    "title": "District de Laufon",
    "lat": 47.4167,
    "lon": 7.5,
    "dist": 8075.7,
    "primary": "",
    "url": "https://fr.wikipedia.org/wiki/District%20de%20Laufon"
  },
  {
    "pageid": 1068957,
    "ns": 0,
    "title": "Liesberg",
    "lat": 47.405001,
    "lon": 7.430013,
    "dist": 8151.2,
    "primary": "",
    "url": "https://fr.wikipedia.org/wiki/Liesberg"
  },
  {
    "pageid": 11613643,
    "ns": 0,
    "title": "Tunnel de Choindez",
    "lat": 47.329337,
    "lon": 7.38459,
    "dist": 8175.1,
    "primary": "",
    "url": "https://fr.wikipedia.org/wiki/Tunnel%20de%20Choindez"
  },
  {
    "pageid": 216496,
    "ns": 0,
    "title": "District de Thierstein",
    "lat": 47.408333333333,
    "lon": 7.5444444444444,
    "dist": 8182.4,
    "primary": "",
    "url": "https://fr.wikipedia.org/wiki/District%20de%20Thierstein"
  },
  {
    "pageid": 757079,
    "ns": 0,
    "title": "Breitenbach (Soleure)",
    "lat": 47.408334,
    "lon": 7.54445,
    "dist": 8182.7,
    "primary": "",
    "url": "https://fr.wikipedia.org/wiki/Breitenbach%20%28Soleure%29"
  },
  {
    "pageid": 14601622,
    "ns": 0,
    "title": "Welschenrohr-G\u00e4nsbrunnen",
    "lat": 47.270248,
    "lon": 7.493648,
    "dist": 8241.7,
    "primary": "",
    "url": "https://fr.wikipedia.org/wiki/Welschenrohr-G%C3%A4nsbrunnen"
  },
  {
    "pageid": 4921363,
    "ns": 0,
    "title": "Les Riedes-Dessus",
    "lat": 47.394590899931,
    "lon": 7.4082284741072,
    "dist": 8359.5,
    "primary": "",
    "url": "https://fr.wikipedia.org/wiki/Les%20Riedes-Dessus"
  },
  {
    "pageid": 5449281,
    "ns": 0,
    "title": "Gare de Laufon",
    "lat": 47.419371,
    "lon": 7.502809,
    "dist": 8391.8,
    "primary": "",
    "url": "https://fr.wikipedia.org/wiki/Gare%20de%20Laufon"
  },
  {
    "pageid": 4121166,
    "ns": 0,
    "title": "Choindez",
    "lat": 47.321196,
    "lon": 7.380667,
    "dist": 8689.2,
    "primary": "",
    "url": "https://fr.wikipedia.org/wiki/Choindez"
  },
  {
    "pageid": 757089,
    "ns": 0,
    "title": "Fehren",
    "lat": 47.396109,
    "lon": 7.580287,
    "dist": 8863.2,
    "primary": "",
    "url": "https://fr.wikipedia.org/wiki/Fehren"
  },
  {
    "pageid": 185683,
    "ns": 0,
    "title": "Courrendlin",
    "lat": 47.33833,
    "lon": 7.37266,
    "dist": 8926.3,
    "primary": "",
    "url": "https://fr.wikipedia.org/wiki/Courrendlin"
  },
  {
    "pageid": 185686,
    "ns": 0,
    "title": "Courroux",
    "lat": 47.36192,
    "lon": 7.37485,
    "dist": 8950.3,
    "primary": "",
    "url": "https://fr.wikipedia.org/wiki/Courroux"
  },
  {
    "pageid": 757105,
    "ns": 0,
    "title": "Meltingen",
    "lat": 47.388891,
    "lon": 7.59085,
    "dist": 9017.9,
    "primary": "",
    "url": "https://fr.wikipedia.org/wiki/Meltingen"
  },
  {
    "pageid": 757157,
    "ns": 0,
    "title": "G\u00e4nsbrunnen",
    "lat": 47.263892,
    "lon": 7.473625,
    "dist": 9038.8,
    "primary": "",
    "url": "https://fr.wikipedia.org/wiki/G%C3%A4nsbrunnen"
  },
  {
    "pageid": 1068902,
    "ns": 0,
    "title": "Brislach",
    "lat": 47.416667,
    "lon": 7.550011,
    "dist": 9195.5,
    "primary": "",
    "url": "https://fr.wikipedia.org/wiki/Brislach"
  },
  {
    "pageid": 186607,
    "ns": 0,
    "title": "Vellerat",
    "lat": 47.320831,
    "lon": 7.372237,
    "dist": 9309.2,
    "primary": "",
    "url": "https://fr.wikipedia.org/wiki/Vellerat"
  },
  {
    "pageid": 757161,
    "ns": 0,
    "title": "Herbetswil",
    "lat": 47.297217,
    "lon": 7.593061,
    "dist": 9321.1,
    "primary": "",
    "url": "https://fr.wikipedia.org/wiki/Herbetswil"
  },
  {
    "pageid": 2000022,
    "ns": 0,
    "title": "Balmberg",
    "lat": 47.2661,
    "lon": 7.5395,
    "dist": 9443.5,
    "primary": "",
    "url": "https://fr.wikipedia.org/wiki/Balmberg"
  },
  {
    "pageid": 757106,
    "ns": 0,
    "title": "Zullwil",
    "lat": 47.391665,
    "lon": 7.601401,
    "dist": 9852.8,
    "primary": "",
    "url": "https://fr.wikipedia.org/wiki/Zullwil"
  },
  {
    "pageid": 757149,
    "ns": 0,
    "title": "Aedermannsdorf",
    "lat": 47.306942,
    "lon": 7.611126,
    "dist": 9977.6,
    "primary": "",
    "url": "https://fr.wikipedia.org/wiki/Aedermannsdorf"
  },
  {
    "pageid": 116765,
    "ns": 0,
    "title": "Weissenstein",
    "lat": 47.25806,
    "lon": 7.52806,
    "dist": 9997.2,
    "primary": "",
    "url": "https://fr.wikipedia.org/wiki/Weissenstein"
  },
  {
    "pageid": 5449269,
    "ns": 0,
    "title": "Gare de Zwingen",
    "lat": 47.433756,
    "lon": 7.5302,
    "dist": 10375.5,
    "primary": "",
    "url": "https://fr.wikipedia.org/wiki/Gare%20de%20Zwingen"
  },
  {
    "pageid": 1068991,
    "ns": 0,
    "title": "Zwingen",
    "lat": 47.43333,
    "lon": 7.533344,
    "dist": 10400.6,
    "primary": "",
    "url": "https://fr.wikipedia.org/wiki/Zwingen"
  },
  {
    "pageid": 3788373,
    "ns": 0,
    "title": "Soyhi\u00e8res",
    "lat": 47.393056,
    "lon": 7.37224,
    "dist": 10442.9,
    "primary": "",
    "url": "https://fr.wikipedia.org/wiki/Soyhi%C3%A8res"
  },
  {
    "pageid": 216520,
    "ns": 0,
    "title": "Kleinl\u00fctzel",
    "lat": 47.427781,
    "lon": 7.416676,
    "dist": 10826.7,
    "primary": "",
    "url": "https://fr.wikipedia.org/wiki/Kleinl%C3%BCtzel"
  },
  {
    "pageid": 216521,
    "ns": 0,
    "title": "Nunningen",
    "lat": 47.394444,
    "lon": 7.619449,
    "dist": 11176.4,
    "primary": "",
    "url": "https://fr.wikipedia.org/wiki/Nunningen"
  },
  {
    "pageid": 7545340,
    "ns": 0,
    "title": "Blauenstein",
    "lat": 47.43154,
    "lon": 7.41633,
    "dist": 11199.9,
    "primary": "",
    "url": "https://fr.wikipedia.org/wiki/Blauenstein"
  },
  {
    "pageid": 758369,
    "ns": 0,
    "title": "G\u00fcnsberg",
    "lat": 47.256943,
    "lon": 7.576113,
    "dist": 11655,
    "primary": "",
    "url": "https://fr.wikipedia.org/wiki/G%C3%BCnsberg"
  },
  {
    "pageid": 757095,
    "ns": 0,
    "title": "Himmelried",
    "lat": 47.422222,
    "lon": 7.598618,
    "dist": 11870,
    "primary": "",
    "url": "https://fr.wikipedia.org/wiki/Himmelried"
  },
  {
    "pageid": 757177,
    "ns": 0,
    "title": "Holderbank (Soleure)",
    "lat": 47.333335,
    "lon": 7.754177,
    "dist": 1250.2,
    "primary": "",
    "url": "https://fr.wikipedia.org/wiki/Holderbank%20%28Soleure%29"
  },
  {
    "pageid": 1958595,
    "ns": 0,
    "title": "Haut-Hauenstein",
    "lat": 47.35192,
    "lon": 7.76367,
    "dist": 1285,
    "primary": "",
    "url": "https://fr.wikipedia.org/wiki/Haut-Hauenstein"
  },
  {
    "pageid": 1070787,
    "ns": 0,
    "title": "Langenbruck",
    "lat": 47.349716,
    "lon": 7.769454,
    "dist": 1527.6,
    "primary": "",
    "url": "https://fr.wikipedia.org/wiki/Langenbruck"
  },
  {
    "pageid": 216513,
    "ns": 0,
    "title": "M\u00fcmliswil-Ramiswil",
    "lat": 47.341108,
    "lon": 7.703345,
    "dist": 3593.1,
    "primary": "",
    "url": "https://fr.wikipedia.org/wiki/M%C3%BCmliswil-Ramiswil"
  },
  {
    "pageid": 757122,
    "ns": 0,
    "title": "Oberbuchsiten",
    "lat": 47.311111,
    "lon": 7.766675,
    "dist": 3884.2,
    "primary": "",
    "url": "https://fr.wikipedia.org/wiki/Oberbuchsiten"
  },
  {
    "pageid": 215819,
    "ns": 0,
    "title": "Egerkingen",
    "lat": 47.322218,
    "lon": 7.794455,
    "dist": 4108.4,
    "primary": "",
    "url": "https://fr.wikipedia.org/wiki/Egerkingen"
  },
  {
    "pageid": 556787,
    "ns": 0,
    "title": "District de Waldenburg",
    "lat": 47.3833,
    "lon": 7.75,
    "dist": 4332.4,
    "primary": "",
    "url": "https://fr.wikipedia.org/wiki/District%20de%20Waldenburg"
  },
  {
    "pageid": 1070822,
    "ns": 0,
    "title": "Waldenburg (B\u00e2le-Campagne)",
    "lat": 47.383328,
    "lon": 7.75001,
    "dist": 4335.5,
    "primary": "",
    "url": "https://fr.wikipedia.org/wiki/Waldenburg%20%28B%C3%A2le-Campagne%29"
  },
  {
    "pageid": 8788792,
    "ns": 0,
    "title": "Hinteri Egg",
    "lat": 47.372583,
    "lon": 7.710667,
    "dist": 4358.5,
    "primary": "",
    "url": "https://fr.wikipedia.org/wiki/Hinteri%20Egg"
  },
  {
    "pageid": 1913377,
    "ns": 0,
    "title": "Belchenflue",
    "lat": 47.36278,
    "lon": 7.81056,
    "dist": 4947.2,
    "primary": "",
    "url": "https://fr.wikipedia.org/wiki/Belchenflue"
  },
  {
    "pageid": 216507,
    "ns": 0,
    "title": "Balsthal",
    "lat": 47.316663,
    "lon": 7.694455,
    "dist": 5244.1,
    "primary": "",
    "url": "https://fr.wikipedia.org/wiki/Balsthal"
  },
  {
    "pageid": 216494,
    "ns": 0,
    "title": "District de Thal",
    "lat": 47.316666666667,
    "lon": 7.6944444444444,
    "dist": 5244.5,
    "primary": "",
    "url": "https://fr.wikipedia.org/wiki/District%20de%20Thal"
  },
  {
    "pageid": 1070805,
    "ns": 0,
    "title": "Oberdorf (B\u00e2le-Campagne)",
    "lat": 47.39222,
    "lon": 7.7514,
    "dist": 5324,
    "primary": "",
    "url": "https://fr.wikipedia.org/wiki/Oberdorf%20%28B%C3%A2le-Campagne%29"
  },
  {
    "pageid": 757117,
    "ns": 0,
    "title": "Niederbuchsiten",
    "lat": 47.29722,
    "lon": 7.770834,
    "dist": 5453.2,
    "primary": "",
    "url": "https://fr.wikipedia.org/wiki/Niederbuchsiten"
  },
  {
    "pageid": 215825,
    "ns": 0,
    "title": "Neuendorf (Soleure)",
    "lat": 47.302771,
    "lon": 7.794458,
    "dist": 5674.5,
    "primary": "",
    "url": "https://fr.wikipedia.org/wiki/Neuendorf%20%28Soleure%29"
  },
  {
    "pageid": 7784612,
    "ns": 0,
    "title": "Ch\u00e2teau de Neu-Bechburg",
    "lat": 47.297222,
    "lon": 7.718611,
    "dist": 5773.8,
    "primary": "",
    "url": "https://fr.wikipedia.org/wiki/Ch%C3%A2teau%20de%20Neu-Bechburg"
  },
  {
    "pageid": 1070796,
    "ns": 0,
    "title": "Liedertswil",
    "lat": 47.3925,
    "lon": 7.719177,
    "dist": 5860.4,
    "primary": "",
    "url": "https://fr.wikipedia.org/wiki/Liedertswil"
  },
  {
    "pageid": 11615825,
    "ns": 0,
    "title": "Tunnel de Belchen",
    "lat": 47.365346,
    "lon": 7.825591,
    "dist": 6099.4,
    "primary": "",
    "url": "https://fr.wikipedia.org/wiki/Tunnel%20de%20Belchen"
  },
  {
    "pageid": 215822,
    "ns": 0,
    "title": "H\u00e4rkingen",
    "lat": 47.309721,
    "lon": 7.818057,
    "dist": 6365.6,
    "primary": "",
    "url": "https://fr.wikipedia.org/wiki/H%C3%A4rkingen"
  },
  {
    "pageid": 1070218,
    "ns": 0,
    "title": "Eptingen",
    "lat": 47.383327,
    "lon": 7.816674,
    "dist": 6588.8,
    "primary": "",
    "url": "https://fr.wikipedia.org/wiki/Eptingen"
  },
  {
    "pageid": 188000,
    "ns": 0,
    "title": "Bennwil",
    "lat": 47.399999,
    "lon": 7.783344,
    "dist": 6656.5,
    "primary": "",
    "url": "https://fr.wikipedia.org/wiki/Bennwil"
  },
  {
    "pageid": 368269,
    "ns": 0,
    "title": "Gunzgen",
    "lat": 47.316664,
    "lon": 7.829177,
    "dist": 6661,
    "primary": "",
    "url": "https://fr.wikipedia.org/wiki/Gunzgen"
  },
  {
    "pageid": 1070812,
    "ns": 0,
    "title": "Titterten",
    "lat": 47.399999,
    "lon": 7.716673,
    "dist": 6701,
    "primary": "",
    "url": "https://fr.wikipedia.org/wiki/Titterten"
  },
  {
    "pageid": 215816,
    "ns": 0,
    "title": "District de G\u00e4u",
    "lat": 47.288888888889,
    "lon": 7.7139,
    "dist": 6764.3,
    "primary": "",
    "url": "https://fr.wikipedia.org/wiki/District%20de%20G%C3%A4u"
  },
  {
    "pageid": 757135,
    "ns": 0,
    "title": "Oensingen",
    "lat": 47.288888,
    "lon": 7.7139,
    "dist": 6764.4,
    "primary": "",
    "url": "https://fr.wikipedia.org/wiki/Oensingen"
  },
  {
    "pageid": 757114,
    "ns": 0,
    "title": "Kestenholz",
    "lat": 47.283334,
    "lon": 7.754173,
    "dist": 6788.6,
    "primary": "",
    "url": "https://fr.wikipedia.org/wiki/Kestenholz"
  },
  {
    "pageid": 1264963,
    "ns": 0,
    "title": "Niederdorf (B\u00e2le-Campagne)",
    "lat": 47.408053,
    "lon": 7.753348,
    "dist": 7087,
    "primary": "",
    "url": "https://fr.wikipedia.org/wiki/Niederdorf%20%28B%C3%A2le-Campagne%29"
  },
  {
    "pageid": 740449,
    "ns": 0,
    "title": "H\u00e4gendorf",
    "lat": 47.334717,
    "lon": 7.844458,
    "dist": 7138.5,
    "primary": "",
    "url": "https://fr.wikipedia.org/wiki/H%C3%A4gendorf"
  },
  {
    "pageid": 1070809,
    "ns": 0,
    "title": "Reigoldswil",
    "lat": 47.398609,
    "lon": 7.691404,
    "dist": 7510.9,
    "primary": "",
    "url": "https://fr.wikipedia.org/wiki/Reigoldswil"
  },
  {
    "pageid": 1070790,
    "ns": 0,
    "title": "Lauwil",
    "lat": 47.39139,
    "lon": 7.67696,
    "dist": 7634.6,
    "primary": "",
    "url": "https://fr.wikipedia.org/wiki/Lauwil"
  },
  {
    "pageid": 215178,
    "ns": 0,
    "title": "Kappel (Soleure)",
    "lat": 47.325001,
    "lon": 7.850006,
    "dist": 7779.7,
    "primary": "",
    "url": "https://fr.wikipedia.org/wiki/Kappel%20%28Soleure%29"
  },
  {
    "pageid": 740453,
    "ns": 0,
    "title": "Rickenbach (Soleure)",
    "lat": 47.341665,
    "lon": 7.858339,
    "dist": 8108.7,
    "primary": "",
    "url": "https://fr.wikipedia.org/wiki/Rickenbach%20%28Soleure%29"
  },
  {
    "pageid": 757164,
    "ns": 0,
    "title": "Laupersdorf",
    "lat": 47.315275,
    "lon": 7.651399,
    "dist": 8158.4,
    "primary": "",
    "url": "https://fr.wikipedia.org/wiki/Laupersdorf"
  },
  {
    "pageid": 1070102,
    "ns": 0,
    "title": "Arboldswil",
    "lat": 47.416665,
    "lon": 7.71668,
    "dist": 8442.2,
    "primary": "",
    "url": "https://fr.wikipedia.org/wiki/Arboldswil"
  },
  {
    "pageid": 757126,
    "ns": 0,
    "title": "Wolfwil",
    "lat": 47.269442,
    "lon": 7.79306,
    "dist": 8917.4,
    "primary": "",
    "url": "https://fr.wikipedia.org/wiki/Wolfwil"
  },
  {
    "pageid": 740474,
    "ns": 0,
    "title": "Wangen bei Olten",
    "lat": 47.344439,
    "lon": 7.86945,
    "dist": 8940.2,
    "primary": "",
    "url": "https://fr.wikipedia.org/wiki/Wangen%20bei%20Olten"
  },
  {
    "pageid": 368266,
    "ns": 0,
    "title": "Boningen",
    "lat": 47.309716,
    "lon": 7.858339,
    "dist": 8973.6,
    "primary": "",
    "url": "https://fr.wikipedia.org/wiki/Boningen"
  },
  {
    "pageid": 1070211,
    "ns": 0,
    "title": "Diegten",
    "lat": 47.41666,
    "lon": 7.816672,
    "dist": 9448.2,
    "primary": "",
    "url": "https://fr.wikipedia.org/wiki/Diegten"
  },
  {
    "pageid": 5428054,
    "ns": 0,
    "title": "Gare de L\u00e4ufelfingen",
    "lat": 47.39206,
    "lon": 7.856357,
    "dist": 9558.1,
    "primary": "",
    "url": "https://fr.wikipedia.org/wiki/Gare%20de%20L%C3%A4ufelfingen"
  },
  {
    "pageid": 7223131,
    "ns": 0,
    "title": "Parc naturel Thal",
    "lat": 47.31613,
    "lon": 7.62862,
    "dist": 9727.3,
    "primary": "",
    "url": "https://fr.wikipedia.org/wiki/Parc%20naturel%20Thal"
  },
  {
    "pageid": 990310,
    "ns": 0,
    "title": "L\u00e4ufelfingen",
    "lat": 47.394951,
    "lon": 7.856759,
    "dist": 9764.8,
    "primary": "",
    "url": "https://fr.wikipedia.org/wiki/L%C3%A4ufelfingen"
  },
  {
    "pageid": 8519345,
    "ns": 0,
    "title": "Ch\u00e2teau de Wildenstein (Suisse)",
    "lat": 47.43166,
    "lon": 7.73583,
    "dist": 9774.5,
    "primary": "",
    "url": "https://fr.wikipedia.org/wiki/Ch%C3%A2teau%20de%20Wildenstein%20%28Suisse%29"
  },
  {
    "pageid": 1070109,
    "ns": 0,
    "title": "Bretzwil",
    "lat": 47.399996,
    "lon": 7.650015,
    "dist": 9792.4,
    "primary": "",
    "url": "https://fr.wikipedia.org/wiki/Bretzwil"
  },
  {
    "pageid": 12697774,
    "ns": 0,
    "title": "Tunnel de fa\u00eete du Hauenstein",
    "lat": 47.381311,
    "lon": 7.868941,
    "dist": 9802.3,
    "primary": "",
    "url": "https://fr.wikipedia.org/wiki/Tunnel%20de%20fa%C3%AEte%20du%20Hauenstein"
  },
  {
    "pageid": 1958624,
    "ns": 0,
    "title": "Bas-Hauenstein",
    "lat": 47.381355,
    "lon": 7.868927,
    "dist": 9803.4,
    "primary": "",
    "url": "https://fr.wikipedia.org/wiki/Bas-Hauenstein"
  },
  {
    "pageid": 740478,
    "ns": 0,
    "title": "Fulenbach",
    "lat": 47.277774,
    "lon": 7.836122,
    "dist": 9806.9,
    "primary": "",
    "url": "https://fr.wikipedia.org/wiki/Fulenbach"
  },
  {
    "pageid": 215831,
    "ns": 0,
    "title": "Hauenstein-Ifenthal",
    "lat": 47.379166,
    "lon": 7.872233,
    "dist": 9932.7,
    "primary": "",
    "url": "https://fr.wikipedia.org/wiki/Hauenstein-Ifenthal"
  },
  {
    "pageid": 1070782,
    "ns": 0,
    "title": "Lampenberg",
    "lat": 47.433335,
    "lon": 7.766673,
    "dist": 9967.5,
    "primary": "",
    "url": "https://fr.wikipedia.org/wiki/Lampenberg"
  },
  {
    "pageid": 1070777,
    "ns": 0,
    "title": "H\u00f6lstein",
    "lat": 47.433335,
    "lon": 7.766673,
    "dist": 9967.5,
    "primary": "",
    "url": "https://fr.wikipedia.org/wiki/H%C3%B6lstein"
  },
  {
    "pageid": 757170,
    "ns": 0,
    "title": "Matzendorf",
    "lat": 47.306947,
    "lon": 7.630565,
    "dist": 9970.2,
    "primary": "",
    "url": "https://fr.wikipedia.org/wiki/Matzendorf"
  },
  {
    "pageid": 990302,
    "ns": 0,
    "title": "K\u00e4nerkinden",
    "lat": 47.412295,
    "lon": 7.837226,
    "dist": 9972.4,
    "primary": "",
    "url": "https://fr.wikipedia.org/wiki/K%C3%A4nerkinden"
  },
  {
    "pageid": 698543,
    "ns": 0,
    "title": "Buckten",
    "lat": 47.409987,
    "lon": 7.844777,
    "dist": 10166.7,
    "primary": "",
    "url": "https://fr.wikipedia.org/wiki/Buckten"
  },
  {
    "pageid": 5428050,
    "ns": 0,
    "title": "Gare de Buckten",
    "lat": 47.408918,
    "lon": 7.847988,
    "dist": 10252.9,
    "primary": "",
    "url": "https://fr.wikipedia.org/wiki/Gare%20de%20Buckten"
  },
  {
    "pageid": 1070024,
    "ns": 0,
    "title": "Ziefen",
    "lat": 47.4315,
    "lon": 7.7055,
    "dist": 10273.9,
    "primary": "",
    "url": "https://fr.wikipedia.org/wiki/Ziefen"
  },
  {
    "pageid": 365685,
    "ns": 0,
    "title": "Murgenthal",
    "lat": 47.266666,
    "lon": 7.833344,
    "dist": 10646.3,
    "primary": "",
    "url": "https://fr.wikipedia.org/wiki/Murgenthal"
  },
  {
    "pageid": 990392,
    "ns": 0,
    "title": "Wittinsburg",
    "lat": 47.427221,
    "lon": 7.84279,
    "dist": 11528.2,
    "primary": "",
    "url": "https://fr.wikipedia.org/wiki/Wittinsburg"
  },
  {
    "pageid": 990352,
    "ns": 0,
    "title": "R\u00fcmlingen",
    "lat": 47.425551,
    "lon": 7.849735,
    "dist": 11706,
    "primary": "",
    "url": "https://fr.wikipedia.org/wiki/R%C3%BCmlingen"
  },
  {
    "pageid": 5428043,
    "ns": 0,
    "title": "Gare de R\u00fcmlingen",
    "lat": 47.425362,
    "lon": 7.850611,
    "dist": 11731.9,
    "primary": "",
    "url": "https://fr.wikipedia.org/wiki/Gare%20de%20R%C3%BCmlingen"
  },
  {
    "pageid": 990290,
    "ns": 0,
    "title": "H\u00e4felfingen",
    "lat": 47.416666,
    "lon": 7.866668,
    "dist": 11865.6,
    "primary": "",
    "url": "https://fr.wikipedia.org/wiki/H%C3%A4felfingen"
  },
  {
    "pageid": 577083,
    "ns": 0,
    "title": "K\u00f6lliken",
    "lat": 47.337501,
    "lon": 8.02362,
    "dist": 1229.9,
    "primary": "",
    "url": "https://fr.wikipedia.org/wiki/K%C3%B6lliken"
  },
  {
    "pageid": 215173,
    "ns": 0,
    "title": "Gretzenbach",
    "lat": 47.358331,
    "lon": 7.998619,
    "dist": 1805.8,
    "primary": "",
    "url": "https://fr.wikipedia.org/wiki/Gretzenbach"
  },
  {
    "pageid": 215157,
    "ns": 0,
    "title": "D\u00e4niken",
    "lat": 47.356944,
    "lon": 7.981953,
    "dist": 2585.4,
    "primary": "",
    "url": "https://fr.wikipedia.org/wiki/D%C3%A4niken"
  },
  {
    "pageid": 740454,
    "ns": 0,
    "title": "Sch\u00f6nenwerd",
    "lat": 47.372216,
    "lon": 8.00279,
    "dist": 3157.5,
    "primary": "",
    "url": "https://fr.wikipedia.org/wiki/Sch%C3%B6nenwerd"
  },
  {
    "pageid": 903979,
    "ns": 0,
    "title": "Holziken",
    "lat": 47.322222,
    "lon": 8.038889,
    "dist": 3245.4,
    "primary": "",
    "url": "https://fr.wikipedia.org/wiki/Holziken"
  },
  {
    "pageid": 374151,
    "ns": 0,
    "title": "Oberentfelden",
    "lat": 47.359723,
    "lon": 8.048617,
    "dist": 3323.3,
    "primary": "",
    "url": "https://fr.wikipedia.org/wiki/Oberentfelden"
  },
  {
    "pageid": 374143,
    "ns": 0,
    "title": "Muhen",
    "lat": 47.333329,
    "lon": 8.052787,
    "dist": 3393,
    "primary": "",
    "url": "https://fr.wikipedia.org/wiki/Muhen"
  },
  {
    "pageid": 365723,
    "ns": 0,
    "title": "Safenwil",
    "lat": 47.319439,
    "lon": 7.983344,
    "dist": 3456.5,
    "primary": "",
    "url": "https://fr.wikipedia.org/wiki/Safenwil"
  },
  {
    "pageid": 783000,
    "ns": 0,
    "title": "Niederg\u00f6sgen",
    "lat": 47.373612,
    "lon": 7.99306,
    "dist": 3518.1,
    "primary": "",
    "url": "https://fr.wikipedia.org/wiki/Niederg%C3%B6sgen"
  },
  {
    "pageid": 215826,
    "ns": 0,
    "title": "District de G\u00f6sgen",
    "lat": 47.373611111111,
    "lon": 7.9930555555556,
    "dist": 3518.2,
    "primary": "",
    "url": "https://fr.wikipedia.org/wiki/District%20de%20G%C3%B6sgen"
  },
  {
    "pageid": 374160,
    "ns": 0,
    "title": "Unterentfelden",
    "lat": 47.369438,
    "lon": 8.041671,
    "dist": 3632.8,
    "primary": "",
    "url": "https://fr.wikipedia.org/wiki/Unterentfelden"
  },
  {
    "pageid": 5035863,
    "ns": 0,
    "title": "Centrale nucl\u00e9aire dans le Niederamt",
    "lat": 47.3659493,
    "lon": 7.97422885,
    "dist": 3655,
    "primary": "",
    "url": "https://fr.wikipedia.org/wiki/Centrale%20nucl%C3%A9aire%20dans%20le%20Niederamt"
  },
  {
    "pageid": 740446,
    "ns": 0,
    "title": "Eppenberg-W\u00f6schnau",
    "lat": 47.376944,
    "lon": 8.025006,
    "dist": 3779.9,
    "primary": "",
    "url": "https://fr.wikipedia.org/wiki/Eppenberg-W%C3%B6schnau"
  },
  {
    "pageid": 374126,
    "ns": 0,
    "title": "Hirschthal (Argovie)",
    "lat": 47.320832,
    "lon": 8.051678,
    "dist": 4040.7,
    "primary": "",
    "url": "https://fr.wikipedia.org/wiki/Hirschthal%20%28Argovie%29"
  },
  {
    "pageid": 982001,
    "ns": 0,
    "title": "Centrale nucl\u00e9aire de G\u00f6sgen",
    "lat": 47.36639,
    "lon": 7.96806,
    "dist": 4046.3,
    "primary": "",
    "url": "https://fr.wikipedia.org/wiki/Centrale%20nucl%C3%A9aire%20de%20G%C3%B6sgen"
  },
  {
    "pageid": 740464,
    "ns": 0,
    "title": "Walterswil (Soleure)",
    "lat": 47.326387,
    "lon": 7.961111,
    "dist": 4243,
    "primary": "",
    "url": "https://fr.wikipedia.org/wiki/Walterswil%20%28Soleure%29"
  },
  {
    "pageid": 365747,
    "ns": 0,
    "title": "Uerkheim",
    "lat": 47.305554,
    "lon": 8.025002,
    "dist": 4444,
    "primary": "",
    "url": "https://fr.wikipedia.org/wiki/Uerkheim"
  },
  {
    "pageid": 437972,
    "ns": 0,
    "title": "District d'Aarau",
    "lat": 47.383,
    "lon": 8.033,
    "dist": 4612.5,
    "primary": "",
    "url": "https://fr.wikipedia.org/wiki/District%20d%27Aarau"
  },
  {
    "pageid": 215165,
    "ns": 0,
    "title": "Dulliken",
    "lat": 47.352773,
    "lon": 7.945845,
    "dist": 4982.1,
    "primary": "",
    "url": "https://fr.wikipedia.org/wiki/Dulliken"
  },
  {
    "pageid": 215834,
    "ns": 0,
    "title": "Oberg\u00f6sgen",
    "lat": 47.366666,
    "lon": 7.952781,
    "dist": 5025.8,
    "primary": "",
    "url": "https://fr.wikipedia.org/wiki/Oberg%C3%B6sgen"
  },
  {
    "pageid": 904037,
    "ns": 0,
    "title": "Sch\u00f6ftland",
    "lat": 47.305553,
    "lon": 8.052785,
    "dist": 5349.8,
    "primary": "",
    "url": "https://fr.wikipedia.org/wiki/Sch%C3%B6ftland"
  },
  {
    "pageid": 1526433,
    "ns": 0,
    "title": "Biblioth\u00e8que cantonale d'Argovie",
    "lat": 47.3896,
    "lon": 8.04485,
    "dist": 5648.4,
    "primary": "",
    "url": "https://fr.wikipedia.org/wiki/Biblioth%C3%A8que%20cantonale%20d%27Argovie"
  },
  {
    "pageid": 8012700,
    "ns": 0,
    "title": "Mus\u00e9e des Beaux-Arts d'Argovie",
    "lat": 47.3901,
    "lon": 8.04455,
    "dist": 5687.9,
    "primary": "",
    "url": "https://fr.wikipedia.org/wiki/Mus%C3%A9e%20des%20Beaux-Arts%20d%27Argovie"
  },
  {
    "pageid": 3865343,
    "ns": 0,
    "title": "Stade du Br\u00fcgglifeld",
    "lat": 47.383333,
    "lon": 8.06,
    "dist": 5703.7,
    "primary": "",
    "url": "https://fr.wikipedia.org/wiki/Stade%20du%20Br%C3%BCgglifeld"
  },
  {
    "pageid": 7987987,
    "ns": 0,
    "title": "Zunftstube",
    "lat": 47.39247451,
    "lon": 8.044832759,
    "dist": 5934.4,
    "primary": "",
    "url": "https://fr.wikipedia.org/wiki/Zunftstube"
  },
  {
    "pageid": 4023471,
    "ns": 0,
    "title": "Banque cantonale d'Argovie",
    "lat": 47.391383,
    "lon": 8.049558,
    "dist": 5990.3,
    "primary": "",
    "url": "https://fr.wikipedia.org/wiki/Banque%20cantonale%20d%27Argovie"
  },
  {
    "pageid": 4866834,
    "ns": 0,
    "title": "Gare d'Aarau",
    "lat": 47.391418,
    "lon": 8.051411,
    "dist": 6062.9,
    "primary": "",
    "url": "https://fr.wikipedia.org/wiki/Gare%20d%27Aarau"
  },
  {
    "pageid": 374120,
    "ns": 0,
    "title": "Erlinsbach (Argovie)",
    "lat": 47.399997,
    "lon": 8.012503,
    "dist": 6189.9,
    "primary": "",
    "url": "https://fr.wikipedia.org/wiki/Erlinsbach%20%28Argovie%29"
  },
  {
    "pageid": 374159,
    "ns": 0,
    "title": "Suhr",
    "lat": 47.374994,
    "lon": 8.080557,
    "dist": 6263.4,
    "primary": "",
    "url": "https://fr.wikipedia.org/wiki/Suhr"
  },
  {
    "pageid": 783284,
    "ns": 0,
    "title": "Winznau",
    "lat": 47.365833,
    "lon": 7.933339,
    "dist": 6305,
    "primary": "",
    "url": "https://fr.wikipedia.org/wiki/Winznau"
  },
  {
    "pageid": 8057360,
    "ns": 0,
    "title": "Ancienne \u00e9cole cantonale d'Aarau",
    "lat": 47.393339,
    "lon": 8.053214,
    "dist": 6315.8,
    "primary": "",
    "url": "https://fr.wikipedia.org/wiki/Ancienne%20%C3%A9cole%20cantonale%20d%27Aarau"
  },
  {
    "pageid": 783266,
    "ns": 0,
    "title": "St\u00fcsslingen",
    "lat": 47.39444,
    "lon": 7.970838,
    "dist": 6331.4,
    "primary": "",
    "url": "https://fr.wikipedia.org/wiki/St%C3%BCsslingen"
  },
  {
    "pageid": 740457,
    "ns": 0,
    "title": "Starrkirch-Wil",
    "lat": 47.348611,
    "lon": 7.926391,
    "dist": 6376.7,
    "primary": "",
    "url": "https://fr.wikipedia.org/wiki/Starrkirch-Wil"
  },
  {
    "pageid": 782987,
    "ns": 0,
    "title": "Lostorf",
    "lat": 47.384721,
    "lon": 7.950002,
    "dist": 6412.7,
    "primary": "",
    "url": "https://fr.wikipedia.org/wiki/Lostorf"
  },
  {
    "pageid": 365669,
    "ns": 0,
    "title": "Bottenwil",
    "lat": 47.286106,
    "lon": 8.005555,
    "dist": 6487.6,
    "primary": "",
    "url": "https://fr.wikipedia.org/wiki/Bottenwil"
  },
  {
    "pageid": 168146,
    "ns": 0,
    "title": "Aarau",
    "lat": 47.4,
    "lon": 8.05,
    "dist": 6857.1,
    "primary": "",
    "url": "https://fr.wikipedia.org/wiki/Aarau"
  },
  {
    "pageid": 374124,
    "ns": 0,
    "title": "Gr\u00e4nichen",
    "lat": 47.358334,
    "lon": 8.1,
    "dist": 6898.1,
    "primary": "",
    "url": "https://fr.wikipedia.org/wiki/Gr%C3%A4nichen"
  },
  {
    "pageid": 783302,
    "ns": 0,
    "title": "Erlinsbach (Soleure)",
    "lat": 47.406941,
    "lon": 8.006947,
    "dist": 6966.7,
    "primary": "",
    "url": "https://fr.wikipedia.org/wiki/Erlinsbach%20%28Soleure%29"
  },
  {
    "pageid": 8047391,
    "ns": 0,
    "title": "Alt-Wartburg",
    "lat": 47.3332,
    "lon": 7.91901,
    "dist": 7026.2,
    "primary": "",
    "url": "https://fr.wikipedia.org/wiki/Alt-Wartburg"
  },
  {
    "pageid": 365735,
    "ns": 0,
    "title": "Staffelbach",
    "lat": 47.28333,
    "lon": 8.047229,
    "dist": 7319.2,
    "primary": "",
    "url": "https://fr.wikipedia.org/wiki/Staffelbach"
  },
  {
    "pageid": 365690,
    "ns": 0,
    "title": "Oftringen",
    "lat": 47.315271,
    "lon": 7.923613,
    "dist": 7322.5,
    "primary": "",
    "url": "https://fr.wikipedia.org/wiki/Oftringen"
  },
  {
    "pageid": 374113,
    "ns": 0,
    "title": "Buchs (Argovie)",
    "lat": 47.390276,
    "lon": 8.080555,
    "dist": 7327.4,
    "primary": "",
    "url": "https://fr.wikipedia.org/wiki/Buchs%20%28Argovie%29"
  },
  {
    "pageid": 8081636,
    "ns": 0,
    "title": "Ancien arsenal de Zofingue",
    "lat": 47.28897,
    "lon": 7.94788,
    "dist": 7771.9,
    "primary": "",
    "url": "https://fr.wikipedia.org/wiki/Ancien%20arsenal%20de%20Zofingue"
  },
  {
    "pageid": 5369094,
    "ns": 0,
    "title": "Gare d'Olten",
    "lat": 47.351915,
    "lon": 7.907764,
    "dist": 7807.7,
    "primary": "",
    "url": "https://fr.wikipedia.org/wiki/Gare%20d%27Olten"
  },
  {
    "pageid": 214515,
    "ns": 0,
    "title": "Olten",
    "lat": 47.35333,
    "lon": 7.907785,
    "dist": 7824.6,
    "primary": "",
    "url": "https://fr.wikipedia.org/wiki/Olten"
  },
  {
    "pageid": 214519,
    "ns": 0,
    "title": "District d'Olten",
    "lat": 47.353333333333,
    "lon": 7.9077777777778,
    "dist": 7825.1,
    "primary": "",
    "url": "https://fr.wikipedia.org/wiki/District%20d%27Olten"
  },
  {
    "pageid": 6608898,
    "ns": 0,
    "title": "Alte Br\u00fccke (Olten)",
    "lat": 47.349480555556,
    "lon": 7.9050805555556,
    "dist": 7985,
    "primary": "",
    "url": "https://fr.wikipedia.org/wiki/Alte%20Br%C3%BCcke%20%28Olten%29"
  },
  {
    "pageid": 263591,
    "ns": 0,
    "title": "Banque alternative suisse",
    "lat": 47.353271,
    "lon": 7.904988,
    "dist": 8032.8,
    "primary": "",
    "url": "https://fr.wikipedia.org/wiki/Banque%20alternative%20suisse"
  },
  {
    "pageid": 904048,
    "ns": 0,
    "title": "Teufenthal",
    "lat": 47.331937,
    "lon": 8.116674,
    "dist": 8096.9,
    "primary": "",
    "url": "https://fr.wikipedia.org/wiki/Teufenthal"
  },
  {
    "pageid": 4862635,
    "ns": 0,
    "title": "Mus\u00e9e du monde des papiers-valeurs",
    "lat": 47.35396,
    "lon": 7.90265,
    "dist": 8217.2,
    "primary": "",
    "url": "https://fr.wikipedia.org/wiki/Mus%C3%A9e%20du%20monde%20des%20papiers-valeurs"
  },
  {
    "pageid": 438053,
    "ns": 0,
    "title": "District de Kulm",
    "lat": 47.3,
    "lon": 8.1,
    "dist": 8338.1,
    "primary": "",
    "url": "https://fr.wikipedia.org/wiki/District%20de%20Kulm"
  },
  {
    "pageid": 365759,
    "ns": 0,
    "title": "Wiliberg",
    "lat": 47.269445,
    "lon": 8.022227,
    "dist": 8372.7,
    "primary": "",
    "url": "https://fr.wikipedia.org/wiki/Wiliberg"
  },
  {
    "pageid": 5428069,
    "ns": 0,
    "title": "Gare de Trimbach",
    "lat": 47.366018,
    "lon": 7.904333,
    "dist": 8373.9,
    "primary": "",
    "url": "https://fr.wikipedia.org/wiki/Gare%20de%20Trimbach"
  },
  {
    "pageid": 904016,
    "ns": 0,
    "title": "Schlossrued",
    "lat": 47.291659,
    "lon": 8.091665,
    "dist": 8454.7,
    "primary": "",
    "url": "https://fr.wikipedia.org/wiki/Schlossrued"
  },
  {
    "pageid": 783258,
    "ns": 0,
    "title": "Rohr (Soleure)",
    "lat": 47.411113,
    "lon": 7.955555,
    "dist": 8510.3,
    "primary": "",
    "url": "https://fr.wikipedia.org/wiki/Rohr%20%28Soleure%29"
  },
  {
    "pageid": 16073827,
    "ns": 0,
    "title": "Eisbahn Kleinholz",
    "lat": 47.34308,
    "lon": 7.897431,
    "dist": 8542.5,
    "primary": "",
    "url": "https://fr.wikipedia.org/wiki/Eisbahn%20Kleinholz"
  },
  {
    "pageid": 374137,
    "ns": 0,
    "title": "K\u00fcttigen",
    "lat": 47.41666,
    "lon": 8.050011,
    "dist": 8566.4,
    "primary": "",
    "url": "https://fr.wikipedia.org/wiki/K%C3%BCttigen"
  },
  {
    "pageid": 374154,
    "ns": 0,
    "title": "Rohr (Argovie)",
    "lat": 47.404166,
    "lon": 8.083332,
    "dist": 8607.4,
    "primary": "",
    "url": "https://fr.wikipedia.org/wiki/Rohr%20%28Argovie%29"
  },
  {
    "pageid": 224801,
    "ns": 0,
    "title": "Kirchleerau",
    "lat": 47.277778,
    "lon": 8.06945,
    "dist": 8622.1,
    "primary": "",
    "url": "https://fr.wikipedia.org/wiki/Kirchleerau"
  },
  {
    "pageid": 783272,
    "ns": 0,
    "title": "Trimbach (Soleure)",
    "lat": 47.363884,
    "lon": 7.900001,
    "dist": 8624.3,
    "primary": "",
    "url": "https://fr.wikipedia.org/wiki/Trimbach%20%28Soleure%29"
  },
  {
    "pageid": 904054,
    "ns": 0,
    "title": "Unterkulm",
    "lat": 47.312499,
    "lon": 8.115276,
    "dist": 8634,
    "primary": "",
    "url": "https://fr.wikipedia.org/wiki/Unterkulm"
  },
  {
    "pageid": 8435340,
    "ns": 0,
    "title": "Ch\u00e2teau d'Aarbourg",
    "lat": 47.321641,
    "lon": 7.90093,
    "dist": 8655.6,
    "primary": "",
    "url": "https://fr.wikipedia.org/wiki/Ch%C3%A2teau%20d%27Aarbourg"
  },
  {
    "pageid": 138705,
    "ns": 0,
    "title": "Zofingue",
    "lat": 47.2833333333,
    "lon": 7.93333333333,
    "dist": 8951.1,
    "primary": "",
    "url": "https://fr.wikipedia.org/wiki/Zofingue"
  },
  {
    "pageid": 443447,
    "ns": 0,
    "title": "District de Zofingue",
    "lat": 47.283,
    "lon": 7.933,
    "dist": 8995.6,
    "primary": "",
    "url": "https://fr.wikipedia.org/wiki/District%20de%20Zofingue"
  },
  {
    "pageid": 365741,
    "ns": 0,
    "title": "Strengelbach",
    "lat": 47.28194,
    "lon": 7.929179,
    "dist": 9273.8,
    "primary": "",
    "url": "https://fr.wikipedia.org/wiki/Strengelbach"
  },
  {
    "pageid": 365681,
    "ns": 0,
    "title": "Moosleerau",
    "lat": 47.269444,
    "lon": 8.065281,
    "dist": 9286.5,
    "primary": "",
    "url": "https://fr.wikipedia.org/wiki/Moosleerau"
  },
  {
    "pageid": 1940587,
    "ns": 0,
    "title": "Geissflue (Rohr)",
    "lat": 47.41988,
    "lon": 7.95674,
    "dist": 9333.5,
    "primary": "",
    "url": "https://fr.wikipedia.org/wiki/Geissflue%20%28Rohr%29"
  },
  {
    "pageid": 374107,
    "ns": 0,
    "title": "Biberstein",
    "lat": 47.415274,
    "lon": 8.083334,
    "dist": 9593.8,
    "primary": "",
    "url": "https://fr.wikipedia.org/wiki/Biberstein"
  },
  {
    "pageid": 1938528,
    "ns": 0,
    "title": "Ergolz",
    "lat": 47.424,
    "lon": 7.95953,
    "dist": 9661.9,
    "primary": "",
    "url": "https://fr.wikipedia.org/wiki/Ergolz"
  },
  {
    "pageid": 365664,
    "ns": 0,
    "title": "Attelwil",
    "lat": 47.259715,
    "lon": 8.04445,
    "dist": 9746.3,
    "primary": "",
    "url": "https://fr.wikipedia.org/wiki/Attelwil"
  },
  {
    "pageid": 904010,
    "ns": 0,
    "title": "Oberkulm",
    "lat": 47.300001,
    "lon": 8.12362,
    "dist": 9830.4,
    "primary": "",
    "url": "https://fr.wikipedia.org/wiki/Oberkulm"
  },
  {
    "pageid": 988806,
    "ns": 0,
    "title": "Hunzenschwil",
    "lat": 47.386109,
    "lon": 8.126395,
    "dist": 9867.8,
    "primary": "",
    "url": "https://fr.wikipedia.org/wiki/Hunzenschwil"
  },
  {
    "pageid": 1958884,
    "ns": 0,
    "title": "Ch\u00e2teau de Frobourg",
    "lat": 47.37921,
    "lon": 7.88984,
    "dist": 9900.9,
    "primary": "",
    "url": "https://fr.wikipedia.org/wiki/Ch%C3%A2teau%20de%20Frobourg"
  },
  {
    "pageid": 224799,
    "ns": 0,
    "title": "Brittnau",
    "lat": 47.261111,
    "lon": 7.947234,
    "dist": 10422.2,
    "primary": "",
    "url": "https://fr.wikipedia.org/wiki/Brittnau"
  },
  {
    "pageid": 136284,
    "ns": 0,
    "title": "Aarburg",
    "lat": 47.2666666667,
    "lon": 7.93333333333,
    "dist": 10426.5,
    "primary": "",
    "url": "https://fr.wikipedia.org/wiki/Aarburg"
  },
  {
    "pageid": 12697723,
    "ns": 0,
    "title": "Tunnel de base du Hauenstein",
    "lat": 47.404609,
    "lon": 7.903597,
    "dist": 10491.3,
    "primary": "",
    "url": "https://fr.wikipedia.org/wiki/Tunnel%20de%20base%20du%20Hauenstein"
  },
  {
    "pageid": 365711,
    "ns": 0,
    "title": "Rothrist",
    "lat": 47.302778,
    "lon": 7.883342,
    "dist": 10660.5,
    "primary": "",
    "url": "https://fr.wikipedia.org/wiki/Rothrist"
  },
  {
    "pageid": 783290,
    "ns": 0,
    "title": "Wisen",
    "lat": 47.394443,
    "lon": 7.88751,
    "dist": 10827.5,
    "primary": "",
    "url": "https://fr.wikipedia.org/wiki/Wisen"
  },
  {
    "pageid": 988841,
    "ns": 0,
    "title": "Rupperswil",
    "lat": 47.402776,
    "lon": 8.127789,
    "dist": 10947,
    "primary": "",
    "url": "https://fr.wikipedia.org/wiki/Rupperswil"
  },
  {
    "pageid": 12249,
    "ns": 0,
    "title": "Canton d'Argovie",
    "lat": 47.418,
    "lon": 8.11,
    "dist": 11085,
    "primary": "",
    "url": "https://fr.wikipedia.org/wiki/Canton%20d%27Argovie"
  },
  {
    "pageid": 365751,
    "ns": 0,
    "title": "Vordemwald",
    "lat": 47.276385,
    "lon": 7.900012,
    "dist": 11263.2,
    "primary": "",
    "url": "https://fr.wikipedia.org/wiki/Vordemwald"
  },
  {
    "pageid": 182649,
    "ns": 0,
    "title": "Zeglingen",
    "lat": 47.41833,
    "lon": 7.906118,
    "dist": 11392.9,
    "primary": "",
    "url": "https://fr.wikipedia.org/wiki/Zeglingen"
  },
  {
    "pageid": 990322,
    "ns": 0,
    "title": "Oltingen",
    "lat": 47.433327,
    "lon": 7.933343,
    "dist": 11484.8,
    "primary": "",
    "url": "https://fr.wikipedia.org/wiki/Oltingen"
  },
  {
    "pageid": 11412515,
    "ns": 0,
    "title": "Wisenberg",
    "lat": 47.4025,
    "lon": 7.88167,
    "dist": 11677.5,
    "primary": "",
    "url": "https://fr.wikipedia.org/wiki/Wisenberg"
  },
  {
    "pageid": 904027,
    "ns": 0,
    "title": "Schmiedrued",
    "lat": 47.263889,
    "lon": 8.112507,
    "dist": 11783.5,
    "primary": "",
    "url": "https://fr.wikipedia.org/wiki/Schmiedrued"
  },
  {
    "pageid": 990307,
    "ns": 0,
    "title": "Kilchberg (B\u00e2le-Campagne)",
    "lat": 47.425617,
    "lon": 7.898822,
    "dist": 12358.7,
    "primary": "",
    "url": "https://fr.wikipedia.org/wiki/Kilchberg%20%28B%C3%A2le-Campagne%29"
  },
  {
    "pageid": 225472,
    "ns": 0,
    "title": "Auenstein",
    "lat": 47.418053,
    "lon": 8.13611,
    "dist": 12498.2,
    "primary": "",
    "url": "https://fr.wikipedia.org/wiki/Auenstein"
  },
  {
    "pageid": 990365,
    "ns": 0,
    "title": "R\u00fcnenberg",
    "lat": 47.433332,
    "lon": 7.883344,
    "dist": 13783,
    "primary": "",
    "url": "https://fr.wikipedia.org/wiki/R%C3%BCnenberg"
  },
  {
    "pageid": 373731,
    "ns": 0,
    "title": "Wohlen (Argovie)",
    "lat": 47.350829,
    "lon": 8.277787,
    "dist": 893.3,
    "primary": "",
    "url": "https://fr.wikipedia.org/wiki/Wohlen%20%28Argovie%29"
  },
  {
    "pageid": 11620931,
    "ns": 0,
    "title": "Stadion Niedermatten",
    "lat": 47.3569972,
    "lon": 8.2640667,
    "dist": 1495.7,
    "primary": "",
    "url": "https://fr.wikipedia.org/wiki/Stadion%20Niedermatten"
  },
  {
    "pageid": 2005600,
    "ns": 0,
    "title": "Batailles de Villmergen",
    "lat": 47.35,
    "lon": 8.25,
    "dist": 1688.2,
    "primary": "",
    "url": "https://fr.wikipedia.org/wiki/Batailles%20de%20Villmergen"
  },
  {
    "pageid": 234455,
    "ns": 0,
    "title": "B\u00fcttikon",
    "lat": 47.329167,
    "lon": 8.269442,
    "dist": 1690.5,
    "primary": "",
    "url": "https://fr.wikipedia.org/wiki/B%C3%BCttikon"
  },
  {
    "pageid": 373722,
    "ns": 0,
    "title": "Villmergen",
    "lat": 47.348603,
    "lon": 8.245565,
    "dist": 1958.9,
    "primary": "",
    "url": "https://fr.wikipedia.org/wiki/Villmergen"
  },
  {
    "pageid": 373675,
    "ns": 0,
    "title": "Hilfikon",
    "lat": 47.333326,
    "lon": 8.250005,
    "dist": 1988.5,
    "primary": "",
    "url": "https://fr.wikipedia.org/wiki/Hilfikon"
  },